"name","geoid","statefip","fipcode","latitude","longitude","population_count","male_count","female_count","white_count","black_count","native_american_count","asian_count","hawaiian_pacific_islander_count","other_count","two_or_more_race_count","not_hispanic_race_count","hispanic_race_count","median_household_income"
"Moore","47127","47","127",35.2888885,-86.358684,"597","3073","3278","5993","245","72","0","0","0","41","6327","24","49427"
"Berkeley","45015","45","015",33.2077,-79.9536554,"13650","96518","97095","130379","47440","1001","4815","169","4402","5407","181889","11724","52506"
"Calhoun","45017","45","017",33.6747804,-80.7803468,"1210","7237","7721","8108","6343","33","0","0","332","142","14474","484","43531"
"Rowan","37159","37","159",35.6413294,-80.5217216,"10454","68359","70002","108084","22333","311","1257","10","3864","2502","127261","11100","43069"
"Robeson","37155","37","155",34.6392096,-79.1008811,"13857","65273","69598","40564","32513","51027","1019","51","5915","3782","123843","11028","30608"
"Barnwell","45011","45","011",33.2605516,-81.4342278,"1899","10290","11808","11429","9939","114","156","9","336","115","21586","512","34336"
"Randolph","37151","37","151",35.7099148,-79.8062153,"10037","70316","72054","124532","8533","774","1432","17","4665","2417","126823","15547","41947"
"Montgomery","47125","47","125",36.5003535,-87.3808865,"12180","92677","93303","133349","35756","1075","3935","810","3190","7865","168766","17214","50344"
"Richmond","37153","37","153",35.004636,-79.7556946,"3537","22459","23587","28875","14594","1104","91","0","556","826","43189","2857","32687"
"Sullivan","42113","42","113",41.4392848,-76.5117166,"1991","3317","3064","6041","157","16","31","31","33","72","6269","112","44189"
"Beaufort","45013","45","013",32.3581474,-80.6893201,"11042","84523","86897","126235","31904","332","2055","70","6890","3934","151763","19657","57048"
"Charleston","45019","45","019",32.8004582,-79.94248,"25866","180654","192250","250522","107049","655","5138","130","2856","6554","353852","19052","53437"
"Harrison","39067","39","067",40.2923175,-81.0915651,"2619","7704","7929","14982","328","39","21","0","31","232","15506","127","43173"
"Hardin","39065","39","065",40.6604152,-83.6640773,"4049","15789","15947","30515","301","8","252","3","97","560","31263","473","42703"
"Hancock","39063","39","063",41.0004711,-83.6660335,"6882","36940","38488","70426","1003","100","1273","15","826","1785","71700","3728","50895"
"Jewell","20089","20","089",39.7770098,-98.2225842,"836","1516","1522","2951","2","10","18","0","15","42","2967","71","40553"
"Jefferson","20087","20","087",39.239644,-95.375314,"2988","9610","9288","18083","90","147","4","0","25","549","18451","447","57236"
"Jackson","20085","20","085",39.4111453,-95.794485,"2649","6667","6733","11741","90","872","65","12","6","614","12819","581","54077"
"Hodgeman","20083","20","083",38.0874927,-99.8984067,"601","972","967","1862","0","0","46","0","0","31","1797","142","54856"
"Haskell","20081","20","081",37.554979,-100.8799515,"878","2078","2052","3542","0","77","39","1","418","53","2951","1179","56484"
"Hamilton","39061","39","061",39.1969272,-84.5441868,"65591","386561","417633","552922","206238","1137","18038","303","5911","19645","781581","22613","49013"
"Henry","39069","39","069",41.3315843,-84.0688996,"3728","13815","14200","26406","164","22","119","13","807","484","26015","2000","53835"
"Putnam","54079","54","079",38.5105128,-81.906109,"3980","27714","28882","54686","849","80","192","0","96","693","56012","584","56774"
"Chenango","36017","36","017",42.4780238,-75.6022407,"7905","24678","24871","47687","421","134","265","14","237","791","48525","1024","45668"
"Cayuga","36011","36","011",43.0085456,-76.5745866,"12390","40576","38597","73064","3448","302","339","0","466","1554","77028","2145","52082"
"Pendleton","54071","54","071",38.6744501,-79.3406175,"974","3720","3682","7103","202","0","3","0","8","86","7320","82","36953"
"Pocahontas","54075","54","075",38.332606,-80.0101207,"1267","4452","4245","8415","129","0","0","0","0","153","8638","59","36827"
"Clinton","36019","36","019",44.752712,-73.7056429,"8739","42107","39578","74714","3505","255","1097","7","959","1148","79465","2220","49930"
"Conejos","08021","08","021",37.2134065,-106.1764473,"1606","4111","4138","7561","8","155","14","15","358","138","3765","4484","36652"
"Preston","54077","54","077",39.4690296,-79.6688649,"3633","17419","16390","31836","1343","69","53","14","111","383","33253","556","45064"
"Madison","12079","12","079",30.4472325,-83.4704159,"1928","9869","8860","10871","7250","66","45","0","203","294","17808","921","32164"
"Ponce","72113","72","113",18.0017167,-66.6066625,"12103","75153","80901","120292","8270","211","164","0","8593","18524","1055","154999","16318"
"Leon","12073","12","073",30.4593104,-84.2778004,"19233","134474","148466","176063","88071","914","9123","37","2453","6279","265789","17151","46745"
"Peñuelas","72111","72","111",18.0266179,-66.7281249,"1844","11107","11663","19331","809","30","34","0","2123","443","158","22612","15497"
"Rusk","48401","48","401",32.1094232,-94.7563823,"5241","28172","25285","42345","9367","232","299","0","568","646","45062","8395","46173"
"Rincón","72117","72","117",18.3405618,-67.2773016,"893","7249","7592","8334","222","0","28","0","311","5946","1342","13499","16755"
"Jackson","13157","13","157",34.1308883,-83.5625382,"4919","30418","31002","54313","4434","143","1118","25","433","954","57294","4126","53379"
"Lee","12071","12","071",26.5516337,-81.8925086,"43334","325158","338517","561079","57315","1983","10579","149","21391","11179","535860","127815","48537"
"Liberty","12077","12","077",30.2598494,-84.8685805,"1029","5140","3155","6468","1371","32","67","0","223","134","7697","598","39406"
"Levy","12075","12","075",29.2844566,-82.783462,"3393","19649","20172","34782","3643","212","197","3","129","855","36641","3180","35782"
"York","23031","23","031",43.4260188,-70.6684248,"15758","97075","102607","191898","1366","656","2252","29","347","3134","196577","3105","57919"
"Rockingham","37157","37","157",36.3818062,-79.7827539,"7323","44553","47747","69696","16989","440","453","74","2542","2106","86889","5411","38126"
"Irwin","13155","13","155",31.6043062,-83.2770374,"766","4798","4610","6451","2679","0","8","0","53","217","9313","95","34156"
"Jasper","13159","13","159",33.3181691,-83.6901425,"1203","6658","6935","10043","2891","255","56","0","82","266","13052","541","42368"
"Howard","29089","29","089",39.143365,-92.6959255,"1697","5086","5096","9333","525","65","24","14","45","176","10043","139","44820"
"Marshall","01095","01","095",34.3095637,-86.3216681,"13736","46409","47909","86785","1811","454","458","41","2901","1868","82374","11944","38983"
"Haywood","37087","37","087",35.5570986,-82.9728229,"4664","28638","30532","56809","539","191","318","31","356","926","57061","2109","42257"
"Harnett","37085","37","085",35.3686348,-78.8716104,"14136","61281","63039","84461","26059","1375","1462","43","6355","4565","109779","14541","46353"
"Halifax","37083","37","083",36.2514375,-77.6448423,"4873","25620","27787","21402","27868","1802","433","6","534","1362","52028","1379","32245"
"Mobile","01097","01","097",30.6845725,-88.1965682,"30512","198216","216035","248566","145175","2680","8148","64","2781","6837","403334","10917","43809"
"Guilford","37081","37","081",36.079065,-79.7886652,"37534","240753","266010","287617","169138","2328","22445","281","13986","10968","468556","38207","45651"
"Marengo","01091","01","091",32.2475911,-87.791091,"2059","9452","10854","9482","10443","24","29","0","246","82","19847","459","32042"
"Henderson","37089","37","089",35.3364146,-82.4797406,"7584","53143","56576","99704","3382","284","1173","142","2853","2181","98905","10814","46448"
"Larimer","08069","08","069",40.6580933,-105.4867638,"23852","158367","159860","289829","2859","1817","6338","302","7064","10018","283384","34843","59805"
"Hancock","23009","23","009",44.5649063,-68.3707034,"9050","26696","27962","52831","263","216","492","23","41","792","53943","715","47030"
"Noble","40103","40","103",36.384901,-97.2363345,"1994","5626","5880","9672","172","935","19","0","49","659","11151","355","48285"
"Marion","01093","01","093",34.1382194,-87.881551,"2791","15004","15383","28448","1170","65","86","0","21","597","29661","726","32299"
"Monroe","01099","01","099",31.5803324,-87.3832656,"1861","10639","11578","12315","9382","284","74","0","10","152","21975","242","27257"
"Bay","26017","26","017",43.6997112,-83.9787007,"10629","52513","54185","100823","1444","366","628","13","627","2797","101403","5295","45583"
"Barry","26015","26","015",42.5828109,-85.3145503,"6893","29733","29414","57000","288","139","282","0","552","886","57648","1499","55064"
"Nowata","40105","40","105",36.7896148,-95.6133123,"2208","5211","5344","7280","208","2091","31","59","91","795","10256","299","39875"
"Okfuskee","40107","40","107",35.466804,-96.3277619,"2814","6585","5663","7796","955","1707","32","0","95","1663","11771","477","36216"
"Rains","48379","48","379",32.8705795,-95.79544,"1302","5630","5407","9978","258","79","60","0","454","208","10129","908","48448"
"Grayson","51077","51","077",36.6522288,-81.215324,"1814","7675","7898","14801","427","27","19","0","35","264","15116","457","29942"
"Benzie","26019","26","019",44.6486213,-86.4943167,"3846","8708","8729","16742","58","215","47","0","40","335","17071","366","47388"
"Morton","38059","38","059",46.7108188,-101.2982647,"3082","14737","14248","26802","187","1053","41","0","332","570","28320","665","62418"
"Summit","08117","08","117",39.6210227,-106.1375545,"1301","15912","13028","25952","334","193","270","110","1721","360","24674","4266","67983"
"Sedgwick","08115","08","115",40.8715679,-102.3553579,"728","1139","1226","2169","29","12","29","0","40","86","2044","321","44191"
"Posey","18129","18","129",38.0276138,-87.8686526,"2798","12708","12859","24856","339","0","109","0","63","200","25303","264","58101"
"Douglas","29067","29","067",36.9465168,-92.5158918,"1333","6743","6773","13297","8","41","3","0","88","79","13372","144","30508"
"Dent","29065","29","065",37.6030746,-91.489716,"1836","7651","7961","15061","62","104","96","0","11","278","15401","211","36831"
"DeKalb","29063","29","063",39.8946645,-94.4071901,"2424","8080","4702","10929","1243","78","30","3","55","444","12290","492","41406"
"San Miguel","08113","08","113",38.0093735,-108.427326,"973","4049","3627","7362","18","27","103","0","52","114","6947","729","56047"
"San Juan","08111","08","111",37.7810745,-107.6702566,"125","327","279","571","0","9","0","0","21","5","489","117","36324"
"Teller","08119","08","119",38.8719937,-105.1825519,"1836","11826","11514","22005","251","85","242","0","276","481","21926","1414","62372"
"Daviess","29061","29","061",39.9628387,-93.970053,"2084","4178","4099","8064","74","29","5","0","11","94","8167","110","41642"
"Dunklin","29069","29","069",36.1530246,-90.0622538,"3849","15220","16342","27053","3081","141","131","0","591","565","29634","1928","31077"
"Hamilton","17065","17","065",38.085226,-88.5390048,"968","4087","4235","8265","42","8","0","0","0","7","8306","16","44159"
"Greene","17061","17","061",39.3554444,-90.3877569,"2395","6797","6705","13194","129","14","7","0","65","93","13360","142","42565"
"St. Louis","29189","29","189",38.6407022,-90.4459541,"78105","474150","527177","697037","233777","1462","37765","170","6570","24546","974544","26783","59755"
"Defiance","39039","39","039",41.3216789,-84.4864334,"3759","19215","19454","35577","723","117","131","6","1285","830","35012","3657","50663"
"Cullman","01043","01","043",34.1319229,-86.8692666,"6705","40081","40884","77478","964","331","451","21","597","1123","77472","3493","38971"
"Crenshaw","01041","01","041",31.7328256,-86.3192219,"1908","6863","7075","9966","3277","108","253","0","154","180","13701","237","36022"
"Wadena","27159","27","159",46.5869861,-94.9886078,"4142","6820","6939","13263","131","142","80","0","25","118","13536","223","41906"
"Swift","27151","27","151",45.2758101,-95.6901243,"3513","4803","4722","9136","156","37","16","0","131","49","9132","393","49035"
"Todd","27153","27","153",46.0665694,-94.9005758,"8869","12500","11966","23343","70","88","103","0","470","392","23131","1335","46414"
"Traverse","27155","27","155",45.7699352,-96.4748315,"1331","1698","1731","3170","17","140","0","0","9","93","3362","67","49186"
"DeKalb","01049","01","049",34.460929,-85.803992,"6359","35474","35594","61415","1295","877","219","730","4936","1596","61111","9957","38192"
"Dodge","31053","31","053",41.5770082,-96.6458526,"4360","17956","18769","35192","180","181","212","81","115","764","32706","4019","49068"
"Dixon","31051","31","051",42.4852801,-96.8558616,"1851","2917","2949","5606","23","5","3","7","148","74","5180","686","51223"
"Douglas","31055","31","055",41.2970908,-96.1540664,"50611","264652","273003","424747","60630","3412","16925","215","16902","14824","474175","63480","54659"
"Wabasha","27157","27","157",44.289693,-92.2333405,"6111","10777","10604","20861","36","47","75","0","62","300","20766","615","56510"
"Wayne","26163","26","163",42.2846636,-83.2619533,"152995","855112","923857","948947","701169","5998","51675","270","30755","40155","1680277","98692","41210"
"Washtenaw","26161","26","161",42.2523272,-83.8446336,"34417","174855","179237","262252","42750","952","29879","125","3200","14934","338618","15474","61003"
"Pendleton","21191","21","191",38.6962842,-84.3519435,"1254","7237","7277","14246","83","17","0","0","0","168","14355","159","48353"
"Powell","21197","21","197",37.8006287,-83.8200155,"1052","6114","6333","12065","51","10","43","13","78","187","12288","159","29736"
"Johnson","29101","29","101",38.741528,-93.8118634,"5553","27818","26337","48378","2387","378","777","161","239","1835","52094","2061","49792"
"Wexford","26165","26","165",44.3313751,-85.5700462,"6078","16421","16330","31515","211","210","205","4","32","574","32170","581","41534"
"Yellowstone","30111","30","111",45.9369867,-108.2766564,"13610","75474","78218","139385","1071","6696","1132","89","1589","3730","145754","7938","52802"
"Kit Carson","08063","08","063",39.3053399,-102.6030226,"1475","4379","3601","7354","334","20","25","13","170","64","6470","1510","40603"
"Columbia","42037","42","037",41.0455174,-76.4042599,"11620","32181","34731","63863","1256","103","794","12","322","562","65268","1644","45374"
"Clinton","42035","42","035",41.2453009,-77.6491409,"8226","19271","20343","38114","594","70","209","13","55","559","39086","528","45078"
"Clearfield","42033","42","033",41.0002489,-78.473749,"14590","42338","39005","77458","1996","140","421","0","300","1028","79093","2250","42257"
"Pulaski","21199","21","199",37.1083118,-84.5799857,"4813","31151","32484","61256","628","89","404","75","364","819","62192","1443","34790"
"Muskegon","26121","26","121",43.2892579,-86.751892,"18139","85094","86389","138796","23697","1104","875","57","751","6203","162595","8888","42829"
"Jasper","17079","17","079",39.0048737,-88.1507629,"1319","4805","4830","9417","33","9","14","0","86","76","9512","123","54209"
"Iroquois","17075","17","075",40.7488665,-87.833601,"6178","14192","14861","27519","394","18","155","0","687","280","27237","1816","47834"
"Jackson","17077","17","077",37.7860959,-89.3812119,"5911","29883","29651","46043","8652","244","1982","0","570","2043","57063","2471","33871"
"Henderson","17071","17","071",40.814471,-90.9412464,"1383","3428","3614","6875","6","34","44","0","12","71","6943","99","47672"
"Henry","17073","17","073",41.3500209,-90.1308378,"6146","24752","25131","46841","890","47","257","7","847","994","47255","2628","53480"
"Wichita","48485","48","485",33.9911025,-98.7168508,"11250","68245","63712","106224","13750","1094","2711","43","3542","4593","108322","23635","45543"
"Randolph","13243","13","243",31.762651,-84.7523108,"524","3732","3583","2543","4527","0","152","0","11","82","7225","90","28377"
"Rabun","13241","13","241",34.8839494,-83.4048594,"1763","7981","8285","15058","307","81","126","0","429","265","14948","1318","35211"
"Dallas","48113","48","113",32.7669866,-96.7784238,"162548","1225722","1259281","1490124","550380","8516","140087","1406","229812","64678","1515210","969793","50270"
"Richmond","13245","13","245",33.361487,-82.0749983,"13264","97446","103845","78651","110369","622","3436","483","2325","5405","192144","9147","37424"
"Delta","48119","48","119",33.3859329,-95.6733504,"782","2586","2637","4434","454","23","39","0","65","208","4866","357","42432"
"Hamilton","36041","36","041",43.6578786,-74.5024556,"1168","2406","2354","4534","24","7","5","1","35","154","4697","63","48243"
"Chickasaw","19037","19","037",43.0597409,-92.3172101,"2231","6149","6095","12009","67","9","69","0","23","67","11966","278","47040"
"Cherokee","19035","19","035",42.7427375,-95.6332616,"2102","5921","5932","11534","54","42","13","0","23","187","11486","367","48599"
"Clarke","19039","19","039",41.0291908,-93.7840961,"1231","4686","4594","8910","13","0","42","0","247","68","8224","1056","43327"
"Pike","42103","42","103",41.3259485,-75.0315143,"5197","28249","28383","50641","3325","103","870","15","688","990","51050","5582","60180"
"Philadelphia","42101","42","101",40.0093755,-75.1333459,"100543","734521","820551","648032","664911","5326","106753","1874","86668","41508","1347351","207721","38253"
"Drew","05043","05","043",33.5872418,-91.7227781,"1532","9215","9525","12761","5395","14","50","0","311","209","18200","540","32819"
"Desha","05041","05","041",33.8287519,-91.2441034,"1413","5741","6638","6175","5949","0","7","0","100","148","11804","575","27197"
"Schuylkill","42107","42","107",40.703682,-76.2177878,"22224","74521","71839","137921","4041","172","732","35","1469","1990","141358","5002","45535"
"Franklin","05047","05","047",35.5085579,-93.8876648,"1708","8797","9069","16939","163","367","52","0","19","326","17380","486","39285"
"Snyder","42109","42","109",40.7554068,-77.0729288,"7831","19828","20218","38769","405","30","274","6","189","373","39224","822","49917"
"Faulkner","05045","05","045",35.1463428,-92.3246456,"9641","58488","60855","100363","13488","454","1517","20","1248","2253","114551","4792","51223"
"Kiowa","08061","08","061",38.387663,-102.7568494,"472","666","797","1372","12","5","1","0","0","73","1358","105","40304"
"Fulton","05049","05","049",36.3836192,-91.8196636,"1357","6055","6169","11853","15","51","184","0","0","121","12083","141","37066"
"Lafourche","22057","22","057",29.4919925,-90.394849,"7526","47888","49586","77533","13015","2200","793","0","1557","2376","93321","4153","51030"
"Worth","13321","13","321",31.5517733,-83.8499598,"1789","10208","10948","14643","6280","39","57","0","38","99","20713","443","37974"
"Dorchester","24019","24","019",38.4291957,-76.0474333,"3416","15542","16992","21754","9118","14","328","0","623","697","31121","1413","47093"
"Caroline","24011","24","011",38.8715306,-75.831662,"3765","15835","16826","26459","4508","37","166","22","616","853","30676","1985","52465"
"Carroll","24013","24","013",39.5633179,-77.015353,"14829","82754","84690","155208","5447","245","2828","33","767","2916","162580","4864","85385"
"Charles","24017","24","017",38.4728532,-77.0154272,"11365","73731","79023","73934","64532","1065","4984","192","1460","6587","145103","7651","90607"
"Iron","55051","55","051",46.32655,-90.2612985,"2159","2934","2973","5737","26","36","4","0","20","84","5853","54","42543"
"Jefferson","55055","55","055",43.0138045,-88.7739847,"10932","42050","42295","79716","699","91","581","0","1663","1595","78529","5816","56877"
"Juneau","55057","55","057",43.9328362,-90.1139837,"7246","14018","12476","24991","622","421","117","6","96","241","25737","757","44961"
"Pleasants","54073","54","073",39.3681331,-81.1611724,"1145","4059","3577","7418","21","6","0","0","0","191","7554","82","44288"
"Gooding","16047","16","047",42.9731849,-114.8214203,"1456","7895","7338","13167","11","196","91","0","1438","330","10852","4381","39930"
"Tyler","48457","48","457",30.7692953,-94.3756561,"2206","11629","9833","18245","2388","108","58","0","363","300","19864","1598","41360"
"Trinity","48455","48","455",31.096675,-95.1516869,"1320","7001","7404","12585","1478","79","29","0","104","130","13105","1300","34295"
"Lincoln","40081","40","081",35.7031175,-96.8813917,"6682","17171","17333","29597","610","2518","30","13","144","1592","33487","1017","45149"
"Stanislaus","06099","06","099",37.5623842,-121.0026557,"36341","261045","266322","397080","14335","4183","28560","4003","56212","22994","297280","230087","50125"
"Day","46037","46","037",45.3550335,-97.5814295,"1275","2832","2786","4955","0","547","26","0","3","87","5509","109","39216"
"Bayamón","72021","72","021",18.3508664,-66.167693,"16829","93812","103475","118547","14371","1510","368","17","16216","46258","1608","195679","24430"
"La Plata","08067","08","067",37.2873673,-107.8397178,"5978","27010","26172","47106","202","2927","381","62","1262","1242","46557","6625","60278"
"Cascade","30013","30","013",47.3164427,-111.350571,"8306","41098","40992","72774","1020","3759","757","24","611","3145","78849","3241","45205"
"Perquimans","37143","37","143",36.1808969,-76.4032445,"1154","6402","7096","9857","3276","15","2","13","53","282","13190","308","44329"
"Pitt","37147","37","147",35.592965,-77.373138,"10688","82005","91793","101984","59347","520","2958","23","5049","3917","163756","10042","41119"
"Colusa","06011","06","011",39.1777385,-122.2375629,"1996","11129","10267","18188","151","231","419","39","1629","739","9119","12277","52168"
"Contra Costa","06013","06","013",37.919479,-121.9515431,"73510","534618","561450","663406","97338","6059","167215","5548","89185","67317","822718","273350","80185"
"Del Norte","06015","06","015",41.7499033,-123.9809983,"2656","15418","12370","21248","802","1484","600","79","1158","2417","22488","5300","40847"
"El Dorado","06017","06","017",38.785532,-120.5343981,"12589","90970","91123","157893","1786","1565","7199","234","6815","6601","159374","22719","69584"
"Fresno","06019","06","019",36.7610058,-119.6550193,"69045","477316","479433","570451","48499","9796","93499","2010","194114","38380","462672","494077","45233"
"Martin","27091","27","091",43.6771181,-94.5372525,"5512","10050","10300","19857","71","38","110","0","54","220","19552","798","51391"
"Worcester","25027","25","027",42.3116934,-71.940282,"63244","399807","411128","689095","37638","1681","36244","135","24579","21563","728131","82804","65313"
"Suffolk","25025","25","025",42.33196,-71.0201725,"57284","366767","392152","421489","169946","2593","65396","107","56190","43198","596984","161935","55044"
"Norfolk","25021","25","021",42.17175,-71.1811147,"51294","329431","358290","555100","43069","564","66682","35","8096","14175","661305","26416","88262"
"Warren","34041","34","041",40.8535238,-75.0095421,"11020","52134","55092","95594","4413","210","2904","16","2513","1576","98637","8589","70471"
"Aiken","45003","45","003",33.5500134,-81.632983,"10935","79318","84590","114199","40653","358","1258","49","3879","3512","155294","8614","45759"
"Abbeville","45001","45","001",34.2138089,-82.4604603,"2282","12308","12689","17470","6986","32","0","0","60","449","24696","301","34799"
"Anderson","45007","45","007",34.521235,-82.6386029,"12606","92287","98928","153110","31333","518","1637","82","1430","3105","184818","6397","42143"
"Jackson","39079","39","079",39.0134773,-82.614142,"2465","16082","16772","31859","202","26","32","0","46","689","32548","306","39460"
"Vance","37181","37","181",36.3654806,-78.4054343,"2895","20984","23845","19558","22237","235","204","10","1829","756","41662","3167","33316"
"Bourbon","20011","20","011",37.8560997,-94.8509284,"1810","7324","7488","13787","522","124","129","0","22","228","14468","344","38280"
"Polk","47139","47","139",35.1094371,-84.5411124,"1870","8370","8317","16142","48","65","23","0","111","298","16404","283","38925"
"Pickett","47137","47","137",36.5593638,-85.075741,"578","2505","2592","4979","38","0","0","0","0","80","5079","18","36773"
"Obion","47131","47","131",36.3581714,-89.1498791,"4055","14945","16184","26853","3284","73","85","9","328","497","30006","1123","40281"
"Overton","47133","47","133",36.3448504,-85.2830756,"2074","10878","11222","21587","179","56","75","0","0","203","21824","276","35287"
"Cumberland","17035","17","035",39.273121,-88.2406193,"1652","5509","5434","10737","23","21","93","15","0","54","10829","114","46061"
"DeKalb","17037","17","037",41.8946125,-88.768991,"9801","51515","52830","87370","7215","237","2551","8","4572","2392","93234","11111","54101"
"Labette","20099","20","099",37.1914676,-95.2974732,"3002","10378","10670","18625","709","237","69","4","131","1273","20147","901","41439"
"Kingman","20095","20","095",37.5529509,-98.1445285,"1497","3926","3864","7571","11","70","0","0","6","132","7553","237","50844"
"Kiowa","20097","20","097",37.5612311,-99.2865389,"832","1245","1291","2421","22","10","17","0","13","53","2392","144","43963"
"Adair","40001","40","001",35.8980428,-94.6510258,"4759","11098","11138","9848","66","8936","131","18","220","3017","20885","1351","33404"
"Alfalfa","40003","40","003",36.7297032,-98.3234449,"1612","3454","2301","4510","110","81","2","0","110","942","5468","287","50156"
"Lake","12069","12","069",28.7641128,-81.7122822,"17041","150126","160435","258871","30316","1183","5519","332","6770","7570","268625","41936","46403"
"Indian River","12061","12","061",27.7006453,-80.574794,"8222","68768","74098","123113","13210","339","1703","0","2133","2368","126045","16821","45798"
"Jackson","12063","12","063",30.78925,-85.2088129,"5315","27124","21776","33838","13078","247","301","33","434","969","46599","2301","35098"
"Jefferson","12065","12","065",30.4245577,-83.8908594,"1553","7522","6676","8649","5136","39","0","0","238","136","13617","581","43355"
"Johnson","20091","20","091",38.8839065,-94.8223295,"46751","277330","289484","492630","25443","1683","25281","183","5205","16389","525332","41482","76113"
"Kearny","20093","20","093",37.9944614,-101.3081363,"616","2125","1827","3306","34","35","11","0","433","133","2768","1184","50506"
"Bronx","36005","36","005",40.8487111,-73.852939,"91893","672447","755910","299869","475378","7980","52457","666","540762","51245","648097","780260","34299"
"Albany","36001","36","001",42.5882401,-73.9740095,"24553","148776","158687","236881","38612","411","17442","174","4044","9899","290476","16987","59887"
"Allegany","36003","36","003",42.2478532,-78.0261531,"10694","24313","23757","45982","677","159","575","0","230","447","47336","734","42776"
"Lafayette","12067","12","067",29.9900661,-83.1785097,"873","5265","3536","6805","1596","0","6","0","267","127","7743","1058","35864"
"Macon","17115","17","115",39.8602372,-88.9615288,"11962","52336","56857","85850","16088","224","1316","25","607","5083","106946","2247","47176"
"Rapides","22079","22","079",31.1932037,-92.5359531,"9797","63862","68363","84683","42339","746","2013","58","294","2092","128521","3704","40734"
"Cattaraugus","36009","36","009",42.2390953,-78.6623347,"14851","39089","39873","72829","1247","2219","657","0","349","1661","77437","1525","42601"
"San Juan","72127","72","127",18.4223633,-66.0680935,"27489","170416","200984","255818","49739","1916","2680","12","31455","29780","6661","364739","21243"
"San Germán","72125","72","125",18.1077999,-67.0372633,"2138","16590","17535","28127","860","44","0","0","4741","353","127","33998","14797"
"Mineral","08079","08","079",37.6514834,-106.9323033,"223","381","352","659","6","0","0","0","64","4","654","79","48125"
"Las Animas","08071","08","071",37.3188308,-104.0441103,"2155","7467","7036","11990","266","300","99","25","1197","626","8357","6146","45067"
"Lincoln","08073","08","073",38.9937401,-103.5075545,"1271","3212","2266","4630","611","88","5","0","50","94","4547","931","39005"
"Logan","08075","08","075",40.7280911,-103.0904639,"2452","11889","10039","20028","317","264","467","8","210","634","18553","3375","42319"
"Mesa","08077","08","077",39.0194924,-108.4618366,"10221","73340","74494","137187","1104","1169","902","183","3090","4199","127313","20521","49322"
"Rockland","36087","36","087",41.1546392,-74.0246455,"27432","157250","163438","227139","39966","698","19940","19","25316","7610","266932","53756","84855"
"Quebradillas","72115","72","115",18.466357,-66.9276025,"1244","12258","12947","18098","1210","52","34","0","5477","334","192","25013","15806"
"Hancock","13141","13","141",33.2692195,-83.0004653,"820","4878","4003","2179","6503","0","35","0","124","40","8708","173","24925"
"Río Grande","72119","72","119",18.3763694,-65.7984342,"3169","25845","27184","28453","7116","29","180","0","15590","1661","394","52635","22246"
"Washington","23029","23","029",44.9670088,-67.6093542,"8699","15874","16317","29497","180","1449","156","15","144","750","31638","553","38083"
"Somerset","23025","23","025",45.5074824,-69.9760395,"7128","25399","26178","50010","168","218","155","20","24","982","51071","506","40066"
"Harris","13145","13","145",32.7315494,-84.912432,"2307","16304","16472","25730","5344","34","293","0","141","1234","31741","1035","63824"
"Waldo","23027","23","027",44.5058342,-69.1389521,"7572","19155","19821","37767","195","94","246","2","103","569","38529","447","44082"
"Hart","13147","13","147",34.3487328,-82.96329,"1835","12615","12883","19716","5093","12","101","6","429","141","24579","919","37653"
"Piscataquis","23021","23","021",45.9176853,-69.1045359,"3522","8552","8604","16568","64","55","80","0","55","334","16945","211","37495"
"Heard","13149","13","149",33.2913474,-85.1378787,"1421","5753","5864","10116","1142","6","4","0","3","346","11346","271","41525"
"Lake","08065","08","065",39.2053405,-106.350079,"418","4021","3341","6410","5","16","48","17","719","147","4588","2774","45367"
"Hyde","37095","37","095",35.4081567,-76.1536867,"273","3097","2596","3610","2007","25","22","0","28","1","5389","304","42897"
"Iredell","37097","37","097",35.8063554,-80.8745395,"12893","81281","83785","134454","20384","812","3732","36","3265","2383","153230","11836","52306"
"Hertford","37091","37","091",36.3635174,-76.981616,"4496","12032","12336","8672","14218","248","190","42","294","704","23587","781","33008"
"Madison","01089","01","089",34.7642377,-86.5510802,"24763","169422","177016","238799","83437","2039","8622","367","2929","10245","330224","16214","57993"
"Limestone","01083","01","083",34.8102387,-86.9813995,"6189","44626","44179","71980","11426","470","1106","38","1814","1971","83668","5137","49570"
"Lee","01081","01","081",32.6040644,-85.3530477,"9295","74277","76705","105518","35095","231","4947","26","2603","2562","145367","5615","44570"
"Macon","01087","01","087",32.3870267,-85.692887,"2743","9166","10852","3370","16271","62","43","0","119","153","19705","313","30738"
"Lowndes","01085","01","085",32.147888,-86.6505859,"1509","5125","5617","2739","7955","0","0","0","0","48","10706","36","25876"
"Logan","40083","40","083",35.9141514,-97.4507644,"4028","21995","22498","36505","4054","1789","261","0","351","1533","42029","2464","55299"
"Parmer","48369","48","369",34.5321628,-102.7848533,"1286","5150","4854","8567","167","161","0","23","849","237","3863","6141","45326"
"Hoke","37093","37","093",35.0172328,-79.2419635,"3223","25202","25873","23741","17441","4108","672","53","2242","2818","44773","6302","41542"
"Jackson","37099","37","099",35.2799287,-83.1224776,"3217","20055","20757","33999","1262","3595","354","25","655","922","38653","2159","38015"
"Henry","13151","13","151",33.4529466,-84.1540207,"9244","101340","110172","111493","83016","174","6418","35","3668","6708","198288","13224","60424"
"Pontotoc","28115","28","115",34.2270808,-89.0372387,"2343","15353","15164","24275","4631","24","105","0","1108","374","28664","1853","40645"
"Prentiss","28117","28","117",34.6211043,-88.5221794,"1746","12413","12967","21309","3603","0","53","0","167","248","25051","329","32945"
"Quitman","28119","28","119",34.2528327,-90.2901707,"1140","3751","4010","2246","5452","0","0","0","23","40","7688","73","24583"
"Kidder","38043","38","043",46.9382725,-99.731198,"699","1279","1151","2353","0","0","0","0","41","36","2308","122","54559"
"Hettinger","38041","38","041",46.4357038,-102.454238,"849","1252","1369","2517","19","60","0","8","0","17","2572","49","52169"
"Logan","38047","38","047",46.469278,-99.5045846,"705","943","1002","1906","6","6","6","0","1","20","1917","28","51458"
"Orange","48361","48","361",30.1223229,-93.8940999,"6394","41232","41985","72702","6849","413","879","13","720","1641","77653","5564","49763"
"Palo Pinto","48363","48","363",32.7522042,-98.3179673,"2771","13822","14099","25293","684","261","109","11","1116","447","22516","5405","39516"
"Charlevoix","26029","26","029",45.5131638,-85.450392,"5938","12903","13231","24871","85","360","126","7","114","571","25703","431","46554"
"Cass","26027","26","027",41.9169658,-86.0002567,"6602","26159","25793","45848","2459","592","400","16","910","1727","50228","1724","46570"
"Calhoun","26025","26","025",42.2429896,-85.0123853,"15969","65845","68945","111511","14742","993","2572","24","641","4307","128451","6339","42520"
"Pembina","38067","38","067",48.7668959,-97.5454045,"2055","3694","3512","6835","17","171","6","0","78","99","6976","230","53504"
"Saline","05125","05","125",34.6485246,-92.674463,"7627","55920","57913","102920","6639","364","1087","58","596","2169","109202","4631","55817"
"Routt","08107","08","107",40.4836638,-106.9877021,"2242","12328","11278","22400","99","84","245","0","454","324","21994","1612","64963"
"Pueblo","08101","08","101",38.1706581,-104.4898924,"14610","79535","81984","127216","3616","4429","1234","79","17765","7180","93207","68312","41286"
"LaMoure","38045","38","045",46.4641952,-98.5260571,"1445","2149","1964","4052","5","9","0","0","6","41","4080","33","54821"
"Garden","31069","31","069",41.6333638,-102.3029845,"431","891","932","1775","3","0","20","0","1","24","1809","14","45845"
"Gage","31067","31","067",40.2552337,-96.6834528,"3773","10793","11025","21090","93","42","91","43","125","334","21375","443","50010"
"Furnas","31065","31","065",40.191865,-99.9096631,"1318","2376","2511","4738","6","47","9","0","36","51","4728","159","39934"
"Franklin","31061","31","061",40.1832031,-98.96208,"1104","1562","1543","3047","4","2","6","0","0","46","3054","51","45905"
"Estill","21065","21","065",37.6924493,-83.9639825,"1367","7118","7358","14173","20","17","0","3","0","263","14467","9","29770"
"Dallas","29059","29","059",37.6835832,-93.0338115,"1211","8284","8280","15824","13","61","13","0","114","539","16262","302","38062"
"Cole","29051","29","051",38.5032331,-92.2800271,"7171","38701","37832","63664","8895","330","870","77","1339","1358","74489","2044","53088"
"Rio Blanco","08103","08","103",39.9726223,-108.2007155,"888","3490","3222","6321","31","247","0","11","33","69","5999","713","61842"
"Saguache","08109","08","109",38.0316514,-106.2346662,"883","3116","3122","5468","23","81","70","0","411","185","3811","2427","33393"
"Juniata","42067","42","067",40.530673,-77.4004377,"5329","12384","12445","24013","188","18","98","0","317","195","24104","725","47398"
"Schoolcraft","26153","26","153",46.0211217,-86.197029,"1887","4102","4186","7204","41","493","122","0","15","413","8213","75","34118"
"Sanilac","26151","26","151",43.4491547,-82.6428148,"10586","20843","21171","40601","240","151","131","2","255","634","40489","1525","41100"
"Van Buren","26159","26","159",42.2821497,-86.3060762,"9796","37287","38064","66196","2723","491","436","7","2955","2543","67156","8195","46008"
"Grant","41023","41","023",44.4963261,-119.0140572,"1521","3594","3682","6942","24","54","30","2","8","216","7022","254","38046"
"Washoe","32031","32","031",40.734015,-119.6622724,"30781","218795","216224","350006","10468","6755","23099","2749","25256","16686","333758","101261","52870"
"Dade","29057","29","057",37.4323495,-93.854878,"1693","3881","3737","7279","37","40","11","5","29","217","7482","136","37035"
"Crawford","29055","29","055",37.9665605,-91.3139328,"2307","12170","12490","24081","54","136","18","2","4","365","24235","425","36743"
"Benton","05007","05","007",36.3378246,-94.2561871,"18081","117781","120417","209445","3551","3397","8262","851","5992","6700","200130","38068","56239"
"Ashley","05003","05","003",33.1908354,-91.7722672,"2181","10185","11044","15037","5517","64","12","0","462","137","20151","1078","34263"
"Boone","05009","05","009",36.3043077,-93.0792041,"3509","18138","19089","35939","132","272","170","14","16","684","36391","836","39251"
"Saluda","45081","45","081",34.0052784,-81.7279033,"1597","10206","9794","12467","5246","51","0","0","2022","214","17035","2965","38827"
"Laclede","29105","29","105",37.6596879,-92.5948405,"2809","17552","17962","34006","185","176","226","6","70","845","34732","782","39712"
"Big Stone","27011","27","011",45.4199252,-96.4022263,"1883","2496","2638","5033","10","11","4","0","6","70","5077","57","47794"
"White Pine","32033","32","033",39.4182344,-114.900605,"1264","5657","4317","8634","416","560","74","29","92","169","8518","1456","57122"
"Bedford","42009","42","009",39.9986204,-78.4947507,"10992","24504","24582","47966","279","104","111","0","150","476","48570","516","45930"
"Allegheny","42003","42","003",40.4697574,-79.9804515,"117948","592511","638634","994913","160131","1558","40317","249","4986","28991","1208608","22537","53040"
"Adams","42001","42","001",39.8694707,-77.2177296,"14081","50307","51460","93927","1576","96","740","0","3409","2019","95154","6613","60356"
"Beaver","42007","42","007",40.6841401,-80.3507209,"19851","82231","87554","154413","10289","150","981","8","403","3541","167445","2340","50581"
"Armstrong","42005","42","005",40.8123805,-79.4641285,"13049","33786","34193","66452","636","12","126","0","152","601","67534","445","44942"
"Crane","48103","48","103",31.4227965,-102.4877739,"559","2368","2362","2656","165","57","0","0","1779","73","1892","2838","58333"
"Crockett","48105","48","105",30.7175316,-101.4042113,"216","1854","1845","2093","10","0","0","0","1551","45","1413","2286","53678"
"Culberson","48109","48","109",31.4459085,-104.5269447,"343","1124","1172","2069","9","11","0","3","170","34","497","1799","35000"
"Blue Earth","27013","27","013",44.0337104,-94.0640122,"11549","32760","32365","59960","2024","229","1323","12","279","1298","63205","1920","50061"
"Brown","27015","27","015",44.2465415,-94.7336472,"5712","12620","12771","24723","114","53","110","14","189","188","24440","951","52598"
"Carlton","27017","27","017",46.6038184,-92.6710435,"7851","18256","17187","31776","439","1939","207","6","56","1020","34864","579","53227"
"Bamberg","45009","45","009",33.2030211,-81.0531607,"1215","7359","8073","5529","9615","10","61","0","158","59","15239","193","31314"
"Talbot","13263","13","263",32.7046026,-84.5300288,"861","3140","3350","2689","3734","4","12","0","7","44","6364","126","34078"
"Taliaferro","13265","13","265",33.559319,-82.8752721,"416","829","892","689","1013","0","9","0","5","5","1683","38","26306"
"Tattnall","13267","13","267",32.0437683,-82.0592081,"2836","14529","10773","15444","7335","65","87","0","1674","697","22597","2705","33980"
"Lee","05077","05","077",34.7798576,-90.7793454,"1280","5561","4405","4258","5622","14","4","0","49","19","9741","225","28393"
"Lawrence","05075","05","075",36.0410983,-91.1011529,"2628","8303","8726","16569","153","48","13","0","6","240","16826","203","32379"
"Lafayette","05073","05","073",33.2406294,-93.611514,"1050","3534","3736","4426","2777","0","18","0","3","46","7180","90","31194"
"Johnson","05071","05","071",35.5733586,-93.4663223,"2669","12834","13096","23828","497","132","254","52","573","594","22460","3470","34139"
"Lincoln","05079","05","079",33.957675,-91.7276258,"1635","8596","5466","9361","4369","46","0","0","208","78","13568","494","32580"
"Calhoun","48057","48","057",28.4417191,-96.5795739,"1553","10840","10826","18986","624","15","767","19","233","1022","11317","10349","51078"
"Canadian","40017","40","017",35.54341,-97.9798435,"11275","62570","63623","103674","2898","5184","3852","12","3629","6944","116369","9824","64505"
"Kanabec","27065","27","065",45.9477598,-93.2977883,"4704","8121","7882","15489","69","158","53","0","22","212","15742","261","47384"
"Dane","55025","55","025",43.0674684,-89.4178523,"48305","252850","257348","430716","26527","1241","27576","120","9620","14398","478712","31486","62865"
"Dodge","55027","55","027",43.4227057,-88.7043791,"15869","46309","42238","83078","1856","700","534","0","821","1558","84657","3890","53783"
"West Carroll","22123","22","123",32.7924797,-91.4519982,"1520","5764","5690","9346","1917","21","10","0","72","88","11122","332","31926"
"York","42133","42","133",39.9217514,-76.7288887,"39672","217323","222337","390542","25769","406","5989","68","6963","9923","411326","28334","58269"
"Wyoming","42131","42","131",41.5251726,-76.008731,"6367","14134","14013","27378","205","16","123","0","77","348","27648","499","51004"
"Winston","01133","01","133",34.1546073,-87.36529,"2295","11876","12254","23207","122","182","43","16","27","533","23463","667","33194"
"Wilcox","01131","01","131",31.9900845,-87.3049075,"1195","5376","5859","3073","8092","4","0","0","66","0","11169","66","23750"
"Thomas","20193","20","193",39.3577058,-101.0834385,"933","3900","4025","7487","148","25","7","8","110","140","7498","427","48504"
"Cleveland","40027","40","027",35.2063756,-97.3230884,"21009","134102","134512","212391","12156","10394","11396","178","3607","18492","247764","20850","56452"
"Colonial Heights","51570","51","570",37.2616846,-77.3968043,"1499","8142","9373","13952","2287","131","613","0","305","227","16640","875","50304"
"Polk","48373","48","373",30.7845525,-94.8373376,"4184","24757","21356","38545","5078","613","264","22","635","956","39570","6543","39662"
"Presidio","48377","48","377",30.0058912,-104.2616192,"433","3605","3699","6670","1","108","251","0","231","43","1390","5914","32132"
"Moody","46101","46","101",44.0124293,-96.6760536,"1484","3227","3212","5142","49","834","109","0","36","269","6249","190","52446"
"McPherson","46089","46","089",45.7842491,-99.2114212,"533","1165","1098","2114","5","129","8","0","0","7","2216","47","36375"
"Lyman","46085","46","085",43.8948122,-99.8419253,"1130","2027","1810","2215","0","1450","38","0","0","134","3824","13","43030"
"West Feliciana","22125","22","125",30.872701,-91.4210081,"1437","10228","5187","8155","7047","53","6","0","39","115","15183","232","56685"
"Westmoreland","42129","42","129",40.3110682,-79.4666879,"38466","176227","185024","343203","8537","410","3037","29","550","5485","357482","3769","52247"
"St. Louis","29510","29","510",38.6356988,-90.2445816,"26096","153641","164209","145402","151566","737","9044","178","2609","8314","305975","11875","35599"
"Suwannee","12121","12","121",30.1892438,-82.9927542,"2486","21647","21948","36081","5901","160","139","23","509","782","39736","3859","36289"
"Taylor","12123","12","123",30.0099084,-83.6094825,"1696","12781","9904","17021","4878","227","71","28","183","277","21840","845","36181"
"Union","12125","12","125",30.0542796,-82.366918,"2191","9830","5361","11236","3280","54","98","9","233","281","14384","807","39163"
"Volusia","12127","12","127",29.057769,-81.161792,"32614","245481","258238","417668","53036","1809","8540","224","12572","9870","442962","60757","41117"
"Wakulla","12129","12","129",30.1403575,-84.3751122,"2066","17366","13762","25481","4817","48","127","0","140","515","29982","1146","50340"
"Tompkins","36109","36","109",42.4530029,-76.4734815,"9421","51125","52730","84393","4315","372","10433","1","910","3431","99037","4818","52624"
"Steuben","36101","36","101",42.2667252,-77.3855253,"16136","48887","49778","93711","1546","157","1509","12","330","1400","97148","1517","47280"
"Baraga","26013","26","013",46.6958592,-88.3618101,"2150","5265","3425","6411","1607","395","50","1","10","216","8577","113","39803"
"Arenac","26011","26","011",44.0368327,-83.7406755,"4706","7813","7611","14877","75","209","40","0","54","169","15143","281","38307"
"Riverside","06065","06","065",33.7298275,-116.0022389,"166561","1143477","1154555","1484768","143976","21535","142136","6601","401152","97864","1218254","1079778","56603"
"Sacramento","06067","06","067",38.4500114,-121.3404409,"108249","717117","748715","873442","145959","11633","220485","15148","100945","98220","1139090","326742","55987"
"Placer","06061","06","061",39.0620323,-120.7227181,"26886","178729","187551","306371","5183","1982","24468","525","10690","17061","317122","49158","73948"
"Plumas","06063","06","063",39.9922953,-120.8243709,"1625","9608","9358","17092","124","407","178","167","279","719","17392","1574","47333"
"San Benito","06069","06","069",36.6107024,-121.085296,"5131","28773","28784","48654","449","430","1533","72","3994","2425","24250","33307","71077"
"Suffolk","36103","36","103",40.943554,-72.6922184,"118295","739210","762163","1215341","115040","3100","56776","421","74326","36369","1233977","267396","88663"
"Brown","20013","20","013",39.8259308,-95.5699047,"2683","4808","5072","8497","173","797","56","8","16","333","9514","366","43724"
"Charlton","13049","13","049",30.7799036,-82.1396442,"1008","7024","6106","9432","3329","101","21","0","118","129","11641","1489","42778"
"Sauk","55111","55","111",43.4279976,-89.943329,"11922","31578","31414","60001","337","834","423","3","386","1008","60030","2962","51055"
"Shawano","55115","55","115",44.7896407,-88.7558134,"11037","20808","20755","37163","120","3115","191","12","123","839","40495","1068","47861"
"Fairfield","45039","45","039",34.3956685,-81.1270007,"1518","11060","12048","9038","13273","0","62","0","162","573","22674","434","36004"
"McLeod","27085","27","085",44.8216437,-94.2723203,"7142","17888","18158","34569","135","92","224","0","527","499","34146","1900","56128"
"Swain","37173","37","173",35.5688491,-83.4656136,"1238","6808","7355","9154","216","3811","75","0","67","840","13821","342","33931"
"Union","37179","37","179",34.9918171,-80.5304354,"15899","105500","107922","172966","25251","816","4521","56","6449","3363","190412","23010","65903"
"Southeast Fairbanks","02240","02","240",63.8649972,-143.2186282,"1316","3909","3120","5604","80","742","101","33","85","384","6693","336","62670"
"Jack","48237","48","237",33.2320933,-98.1716089,"1197","5121","3825","8274","459","29","4","0","127","53","7536","1410","50324"
"Irion","48235","48","235",31.3034241,-100.9813037,"286","824","820","1481","0","0","0","0","103","60","1232","412","58500"
"Caddo","40015","40","015",35.1679202,-98.3810447,"5834","15339","14156","18607","809","6947","77","13","1114","1928","26181","3314","40674"
"Edgefield","45037","45","037",33.7764976,-81.9682452,"2367","14234","12232","15627","9695","80","91","0","546","427","24971","1495","46637"
"Dorchester","45035","45","035",33.0821859,-80.4046966,"9197","70881","74834","99179","37172","756","2491","130","1735","4252","138735","6980","54901"
"Dillon","45033","45","033",34.3901723,-79.3749638,"2900","14878","16557","14894","14662","860","74","6","266","673","30637","798","28938"
"Jefferson","39081","39","081",40.3993836,-80.7635272,"8415","32976","35077","62372","3871","60","229","4","47","1470","67194","859","41942"
"Bryan","40013","40","013",33.9640035,-96.2641365,"6195","21412","22591","32642","856","6495","219","12","1359","2420","41612","2391","38847"
"Blaine","40011","40","011",35.877782,-98.4289343,"1915","5239","4571","7731","551","507","26","0","356","639","8919","891","41972"
"Knox","39083","39","083",40.4036198,-82.4223929,"5552","29869","31135","58847","643","51","220","0","95","1148","60160","844","48533"
"Carter","40019","40","019",34.2518484,-97.2879273,"5885","23465","24977","36166","3379","3958","451","53","1011","3424","45344","3098","44531"
"Lake","39085","39","085",41.9241163,-81.3926429,"20047","112045","117392","212349","8494","242","2910","8","1229","4205","220632","8805","58029"
"Lawrence","39087","39","087",38.6038659,-82.5171856,"4973","30202","31625","58982","1332","100","277","0","66","1070","61311","516","42874"
"Hood","48221","48","221",32.430149,-97.8316766,"3602","26267","26904","49800","435","433","333","0","1657","513","47131","6040","56100"
"Mason","54053","54","053",38.7592882,-82.0241715,"2064","13144","14033","26597","197","0","16","0","27","340","26910","267","36448"
"Marshall","54051","54","051",39.8544259,-80.6717944,"3132","15990","16490","31722","279","123","132","9","56","159","32163","317","45182"
"Mineral","54057","54","057",39.4047806,-78.9566899,"2374","13696","14059","26316","873","1","83","0","47","435","27516","239","31790"
"Mercer","54055","54","055",37.4034477,-81.106456,"4776","29509","32382","56409","3625","159","405","22","110","1161","61305","586","36195"
"Essex","50009","50","009",44.7240209,-71.7327362,"1896","3111","3096","6000","38","33","24","0","14","98","6130","77","36599"
"Marion","12083","12","083",29.2028047,-82.0431004,"18113","161696","175115","275115","43498","1166","5059","122","4358","7493","297498","39313","39459"
"Miami-Dade","12086","12","086",25.6105796,-80.4991365,"152240","1280221","1358821","1999090","491978","4001","41871","612","64010","37480","907309","1731733","43129"
"Monroe","12087","12","087",25.6154566,-81.1899714,"5923","40159","35742","67628","4970","334","769","0","822","1378","59176","16725","57290"
"Mingo","54059","54","059",37.7211608,-82.1589891,"2362","12686","13245","24917","367","28","106","0","85","428","25828","103","33221"
"Clay","12019","12","019",29.9865835,-81.8650364,"10016","96931","100486","161899","19275","447","6251","177","2111","7257","179953","17464","58290"
"Charlotte","12015","12","015",26.8689328,-81.9410769,"10415","80718","85065","150032","9294","360","2126","5","950","3016","154976","10807","44244"
"Citrus","12017","12","017",28.8436402,-82.5248099,"7952","67381","72273","130285","4179","500","2226","0","391","2073","132586","7068","38312"
"Toa Alta","72135","72","135",18.3645557,-66.2446686,"3855","36028","38575","52419","6168","174","221","0","5074","10547","440","74163","29976"
"Toa Baja","72137","72","137",18.4568031,-66.1930391,"5685","40215","45027","42574","7422","165","15","7","5826","29233","468","84774","23303"
"Santa Isabel","72133","72","133",17.9529217,-66.3875885,"1244","11085","11828","13663","2971","22","0","0","5982","275","40","22873","15674"
"Calhoun","12013","12","013",30.3888013,-85.1979155,"1530","7991","6624","11875","1963","170","94","0","162","351","13800","815","34510"
"Arapahoe","08005","08","005",39.6445537,-104.3317065,"49499","299103","309207","444490","62294","3432","32686","1260","35387","28761","494804","113506","63265"
"Archuleta","08007","08","007",37.2023952,-107.0508634,"1239","6202","5972","10636","110","280","91","0","919","138","9923","2251","46646"
"Alamosa","08003","08","003",37.5684423,-105.7880414,"1481","7972","8297","14159","303","327","289","18","747","426","8842","7427","32395"
"Fairbanks North Star","02090","02","090",64.6923172,-146.6017326,"6350","53477","46228","76423","4340","6288","2621","633","889","8511","92349","7356","71068"
"McLean","38055","38","055",47.6530553,-101.4217937,"2697","4783","4668","8608","8","679","12","0","38","106","9245","206","55686"
"Trujillo Alto","72139","72","139",18.3353864,-66.0037872,"4383","34036","37850","48222","6468","83","10","11","3281","13811","298","71588","30140"
"Modoc","06049","06","049",41.5929185,-120.7183704,"914","4664","4520","8282","47","330","100","3","96","326","7839","1345","37860"
"Merced","06047","06","047",37.1948063,-120.7228019,"18698","133152","130733","161431","9020","1787","19904","546","59775","11422","113663","150222","42462"
"Marin","06041","06","041",38.0518169,-122.7459738,"18520","126460","131889","204918","6583","795","14681","622","19813","10937","217474","40875","93257"
"Gwinnett","13135","13","135",33.9591477,-84.0230847,"41368","421395","437839","448872","217990","3410","94702","382","69790","24088","684391","174843","60289"
"Mercer","38057","38","057",47.3071473,-101.8333279,"1379","4469","4164","8275","4","251","19","0","13","71","8441","192","72704"
"McIntosh","38051","38","051",46.1170337,-99.4430409,"919","1341","1418","2669","9","14","14","0","0","53","2734","25","42277"
"San Bernardino","06071","06","071",34.8572198,-116.1811967,"131284","1042053","1052716","1301984","179087","17846","139894","7155","356922","91881","1024507","1070262","53433"
"Hunterdon","34019","34","019",40.5652832,-74.9119695,"12423","62901","63349","114966","3259","80","4581","195","1602","1567","118851","7399","105444"
"Essex","34013","34","013",40.7874003,-74.2462919,"60770","380222","411387","331872","315809","1967","38889","311","80784","21977","619960","171649","53976"
"Habersham","13137","13","137",34.6343924,-83.5258749,"3877","20573","22954","38227","1675","95","956","69","1869","636","37643","5884","40907"
"Grady","13131","13","131",30.875891,-84.2450655,"1988","12504","12739","16339","7254","22","88","31","1028","481","22589","2654","34187"
"Greene","13133","13","133",33.5767403,-83.1666127,"2044","7972","8359","9667","5935","7","116","0","454","152","15319","1012","42408"
"Hall","13139","13","139",34.3175876,-83.8184973,"12394","93746","94170","155460","14181","451","3283","63","11261","3217","137003","50913","51202"
"Panola","28107","28","107",34.3652052,-89.9630654,"2258","16584","17789","16779","17247","9","16","0","42","280","33827","546","36555"
"Franklin","37069","37","069",36.0882406,-78.2830903,"4375","30917","31379","41972","16006","504","269","0","1992","1553","57383","4913","42685"
"Edgecombe","37065","37","065",35.9170554,-77.6026551,"4461","25693","29587","21471","31218","177","47","79","1240","1048","53042","2238","32659"
"Forsyth","37067","37","067",36.1324661,-80.2569608,"28279","171662","190022","242474","93993","855","7439","403","10555","5965","316939","44745","45471"
"Floyd","19067","19","067",43.052741,-92.7873669,"2350","7958","8092","15202","325","1","121","7","58","336","15691","359","44797"
"Oktibbeha","28105","28","105",33.4223134,-88.8761514,"3187","24592","24456","28608","18205","92","1472","0","241","430","48268","780","32485"
"Noxubee","28103","28","103",33.1065082,-88.5660044,"936","5346","5797","3094","8016","14","0","0","16","3","10989","154","26677"
"Newton","28101","28","101",32.4019702,-89.1184115,"2186","10217","11446","13699","6576","1069","55","0","41","223","21313","350","37045"
"Pearl River","28109","28","109",30.7747929,-89.5869043,"2957","27271","27925","46411","7483","110","79","0","392","721","53522","1674","40976"
"Franklin","19069","19","069",42.7365489,-93.2714247,"1801","5243","5246","9660","112","7","24","0","555","131","9282","1207","48605"
"Marion","48315","48","315",32.7981818,-94.3568528,"902","4900","5348","7660","2349","24","166","0","9","40","9851","397","34175"
"Clare","26035","26","035",43.9911368,-84.8383253,"5775","15163","15547","29630","139","143","75","0","89","634","30143","567","33015"
"Emmet","19063","19","063",43.3779844,-94.6693702,"1684","4887","5030","9575","149","38","17","10","38","90","9023","894","47795"
"Polk","12105","12","105",27.9531147,-81.6927831,"43421","307017","319659","493630","94487","1663","10479","220","11439","14758","506195","120481","43162"
"Candler","13043","13","043",32.4038515,-82.071235,"1084","5342","5689","7365","2687","48","344","0","522","65","9792","1239","30185"
"Rolette","38079","38","079",48.7682715,-99.8404634,"2179","7120","7378","2909","78","11210","37","0","27","237","14432","66","33277"
"Richland","38077","38","077",46.2652192,-96.9379599,"3602","8414","7903","15338","76","456","56","8","131","252","15917","400","55390"
"Renville","38075","38","075",48.7127815,-101.6581522,"766","1294","1268","2519","4","14","13","0","0","12","2499","63","65125"
"Fayette","19065","19","065",42.8641219,-91.8403761,"3987","10338","10251","19790","223","105","157","0","39","275","20141","448","44928"
"Hall","31079","31","079",40.8660265,-98.5026645,"5518","30430","30362","56386","1336","346","678","18","1281","747","45273","15519","49252"
"Grant","31075","31","075",41.9139574,-101.7559645,"294","392","377","769","0","0","0","0","0","0","728","41","44750"
"Greeley","31077","31","077",41.5675715,-98.5305655,"859","1236","1240","2435","17","1","7","0","1","15","2426","50","42904"
"Garfield","31071","31","071",41.9068675,-98.951231,"408","952","981","1894","12","0","0","0","6","21","1909","24","43179"
"Fillmore","31059","31","059",40.5250399,-97.5967053,"1593","2821","2876","5537","52","8","1","0","57","42","5494","203","52316"
"Wyoming","36121","36","121",42.7013627,-78.2285667,"6669","22442","19004","38038","2372","118","175","0","209","534","40133","1313","52564"
"Gosper","31073","31","073",40.5090947,-99.8232058,"516","947","1029","1917","0","13","0","0","21","25","1927","49","54375"
"Santa Cruz","04023","04","023",31.525733,-110.8452278,"3122","22566","24507","37543","165","106","466","27","8033","733","8108","38965","40140"
"Roanoke","51161","51","161",37.330792,-80.1912371,"6675","44757","48876","83312","5441","62","2670","0","136","2012","91171","2462","60519"
"Archer","48009","48","009",33.6163054,-98.6872669,"1638","4374","4405","8260","91","131","41","0","134","122","8071","708","60275"
"Anderson","48001","48","001",31.8412615,-95.6617264,"5424","35469","22446","42959","12265","255","355","9","1363","709","48166","9749","41327"
"Rock","27133","27","133",43.6695866,-96.2632376,"3078","4651","4912","9238","51","60","89","0","34","91","9330","233","51496"
"Rice","27131","27","131",44.3509427,-93.2985032,"10046","33038","31848","58393","2489","325","1478","50","1243","908","59821","5065","59598"
"St. Louis","27137","27","137",47.578635,-92.51457,"33021","100791","99715","185808","3101","3831","2066","81","429","5190","197655","2851","48331"
"Roseau","27135","27","135",48.7610683,-95.8215042,"5204","7991","7624","14618","107","208","417","2","37","226","15463","152","53199"
"Andrews","48003","48","003",32.3122581,-102.6402058,"1149","8557","8218","15490","329","103","63","0","384","406","7850","8925","70423"
"Angelina","48005","48","005",31.2519514,-94.6110558,"5860","42886","44862","68827","13246","404","848","0","3016","1407","69395","18353","44223"
"Aransas","48007","48","007",28.1042254,-96.977983,"1445","12031","12261","21538","409","183","404","0","519","1239","17949","6343","41690"
"Scott","27139","27","139",44.651805,-93.5337311,"12720","68449","68873","117647","4039","990","8130","167","2170","4179","130894","6428","87794"
"Carroll","13045","13","045",33.5822366,-85.0805272,"6678","54865","57730","86048","20649","298","951","7","1960","2682","105333","7262","43586"
"Shenandoah","51171","51","171",38.856204,-78.5739867,"3802","20725","21999","39788","1015","22","219","0","836","844","39838","2886","49406"
"Nye","32023","32","023",37.9658636,-116.4590107,"2441","21179","21446","36514","1093","776","610","103","2199","1330","36580","6045","41712"
"Pratt","20151","20","151",37.6475943,-98.7401199,"1377","4873","4866","9255","70","198","1","12","59","144","9093","646","49550"
"Winnebago","55139","55","139",44.0857068,-88.6681488,"18482","85019","83985","156404","3450","1015","4100","43","1296","2696","162553","6451","52018"
"Saginaw","26145","26","145",43.3282667,-84.05541,"22018","95216","101263","147890","36160","517","2307","77","3318","6210","180617","15862","43042"
"St. Clair","26147","26","147",42.9288035,-82.6689135,"18144","79585","80844","150204","3534","290","1003","0","1035","4363","155451","4978","49730"
"Presque Isle","26141","26","141",45.4895147,-83.3840186,"4305","6502","6535","12681","60","49","44","0","14","189","12899","138","41213"
"Mineral","32021","32","021",38.516647,-118.4162794,"618","2433","2133","3045","60","923","187","2","199","150","4001","565","38923"
"Butler","42019","42","019",40.9138467,-79.9189776,"24353","91628","94061","178867","2161","133","2005","54","252","2217","183335","2354","60934"
"Berks","42011","42","011",40.4139565,-75.9268598,"39853","203262","210703","346412","20612","2712","5830","194","20891","17314","338556","75409","55936"
"Blair","42013","42","013",40.4979217,-78.3106362,"14044","61668","64780","121304","2016","64","900","0","270","1894","125044","1404","43981"
"Roscommon","26143","26","143",44.3395168,-84.6112715,"3607","11989","12079","23304","48","273","66","0","22","355","23736","332","35133"
"St. Joseph","26149","26","149",41.9114878,-85.5228703,"8889","30279","30743","56231","1687","208","387","3","1230","1276","56632","4390","44449"
"Butte","16023","16","023",43.685101,-113.1776308,"544","1424","1229","2465","53","7","13","0","20","95","2491","162","37891"
"Camas","16025","16","025",43.4633958,-114.8044265,"219","538","514","983","0","10","0","0","32","27","933","119","42614"
"Bradford","42015","42","015",41.7914949,-76.5021237,"12501","30666","31562","60559","335","95","388","12","166","673","61345","883","48987"
"Bucks","42017","42","017",40.3368872,-75.10706,"54781","307126","319457","557637","24180","859","27263","23","6043","10578","596875","29708","77568"
"Catoosa","13047","13","047",34.8993926,-85.1373531,"3463","31905","33470","60887","1817","167","1002","1","235","1266","63603","1772","50876"
"Beltrami","27007","27","007",47.8795077,-95.00505,"8904","22740","22694","33662","372","9413","396","47","119","1425","44565","869","44757"
"Becker","27005","27","005",46.9376289,-95.7417568,"10146","16601","16537","29081","171","2368","154","12","124","1228","32556","582","52038"
"Anoka","27003","27","003",45.2741098,-93.2427232,"31875","169586","169178","290201","16604","2230","13853","118","5739","10019","325512","13252","70873"
"Marion","18097","18","097",39.7829759,-86.1357939,"65810","446372","479963","584486","250631","2519","22434","302","40154","25809","836505","89830","42168"
"Madison","18095","18","095",40.166203,-85.7224543,"13531","65208","65072","114731","10212","108","573","110","1440","3106","125606","4674","44195"
"Lawrence","18093","18","093",38.8398148,-86.4878198,"3560","22637","23177","44305","171","70","265","0","252","751","45134","680","45875"
"LaPorte","18091","18","091",41.5490129,-86.7447386,"11529","57575","53705","93488","12101","266","556","10","1928","2931","104645","6635","46872"
"Marshall","18099","18","099",41.3250032,-86.2690363,"5143","23335","23627","43831","277","148","293","29","1839","545","42665","4297","48485"
"Medina","39103","39","103",41.1161743,-81.8997641,"15521","86190","88641","167438","2489","402","1999","6","520","1977","171633","3198","66952"
"Clay","13061","13","061",31.6198309,-84.9925826,"461","1510","1594","987","1895","0","0","0","6","216","2952","152","20438"
"Aitkin","27001","27","001",46.6024464,-93.41976,"5778","8064","7775","15059","58","292","49","1","13","367","15661","178","42252"
"Goliad","48175","48","175",28.6607,-97.4304145,"749","3653","3757","5350","416","0","5","10","1550","79","4778","2632","51226"
"Gonzales","48177","48","177",29.4619169,-97.4918609,"1993","10122","10050","11381","1352","59","19","0","6804","557","10271","9901","42983"
"Franklin","25011","25","011",42.5845038,-72.5917921,"10821","34759","36385","66793","922","185","1157","16","593","1478","68568","2576","55221"
"Gray","48179","48","179",35.4025424,-100.8123736,"2530","12253","10730","19728","1093","294","101","29","1076","662","16915","6068","43288"
"Izard","05065","05","065",36.0948792,-91.9136252,"1621","6997","6483","13071","162","28","29","36","54","100","13238","242","32630"
"Clinch","13065","13","065",30.9176531,-82.7026143,"764","3359","3432","4563","1809","59","29","0","191","140","6506","285","24015"
"Tift","13277","13","277",31.4570027,-83.5259307,"2870","19671","21116","26206","12133","48","560","19","1292","529","36373","4414","37653"
"Thomas","13275","13","275",30.8646064,-83.9198196,"3661","21239","23585","26837","16350","21","388","0","487","741","43328","1496","36641"
"Jackson","05067","05","067",35.5966053,-91.223178,"2637","8737","8860","14005","3051","88","38","0","112","303","17103","494","31261"
"Howard","05061","05","061",34.0830639,-93.9909315,"1345","6596","6959","9172","2955","126","3","0","1235","64","12122","1433","34229"
"Terrell","13273","13","273",31.7771909,-84.4394464,"1066","4342","4871","3395","5693","4","43","0","35","43","8991","222","28688"
"Telfair","13271","13","271",31.9136387,-82.9310624,"1578","9502","6914","9501","6626","31","10","0","192","56","14145","2271","26449"
"Independence","05063","05","063",35.7374992,-91.5599423,"3168","18064","18888","34885","759","164","321","7","183","633","34739","2213","36265"
"Toombs","13279","13","279",32.1266975,-82.3320708,"1787","12743","14467","18068","6991","11","249","0","1175","716","24110","3100","33679"
"Jefferson","05069","05","069",34.2776955,-91.9307012,"6594","36165","37383","30523","40881","82","594","126","513","829","72173","1375","36747"
"Washington","42125","42","125",40.2000054,-80.2521319,"25928","101743","106483","195642","6137","152","1777","25","471","4022","205291","2935","56450"
"Dyer","47045","47","045",36.054196,-89.3983058,"2598","18422","19632","31222","5078","86","221","6","318","1123","36905","1149","42468"
"Wayne","42127","42","127",41.6470068,-75.293193,"8495","27420","24222","48498","1812","108","278","9","306","631","49568","2074","49919"
"Middlesex","25017","25","017",42.4817114,-71.3949166,"119786","758542","797574","1230158","75980","2074","163386","424","37162","46932","1442371","113745","85118"
"Venango","42121","42","121",41.4019797,-79.7544181,"10680","26484","27422","52192","479","35","209","2","78","911","53344","562","43644"
"Warren","42123","42","123",41.8436691,-79.3131731,"8259","20500","20462","40083","202","58","200","0","36","383","40579","383","44020"
"Morgan","54065","54","065",39.5550021,-78.2573449,"1269","8622","8853","17013","135","15","73","0","0","239","17245","230","39324"
"Sharp","05135","05","135",36.1733989,-91.4710689,"2106","8302","8753","16320","69","143","103","10","23","387","16721","334","30691"
"Fond du Lac","55039","55","039",43.7547219,-88.493284,"15724","49914","52006","95382","1187","471","1341","17","1900","1622","97071","4849","55473"
"Bibb","01007","01","007",33.0158929,-87.1271475,"1773","12073","10531","17327","4846","93","21","0","7","310","22102","502","38678"
"Nash","37127","37","127",35.9659447,-77.9875546,"6799","45521","49201","51528","36183","616","794","20","3197","2384","88584","6138","42713"
"Minnehaha","46099","46","099",43.6674723,-96.7957261,"16180","89658","89284","155261","7513","4674","3193","44","3905","4352","170642","8300","53525"
"Valdez-Cordova","02261","02","261",61.3498403,-145.0231406,"1259","5137","4480","7044","0","1501","308","42","115","607","9192","425","78810"
"Hampshire","25015","25","015",42.3394593,-72.6636936,"15130","75286","85473","142736","4361","286","8465","65","1331","3515","152487","8272","61368"
"Washington","12133","12","133",30.6022166,-85.6627968,"2645","13478","11151","19619","3737","235","34","13","164","827","23786","843","38970"
"Walton","12131","12","131",30.6312106,-86.1766139,"3905","30176","29311","51711","3078","575","754","97","1762","1510","56001","3486","44966"
"Warren","36113","36","113",43.5551053,-73.8381388,"6606","31977","33203","62686","791","164","599","20","178","742","63806","1374","56798"
"Mellette","46095","46","095",43.5846896,-100.7609555,"511","1042","1044","821","0","1194","0","0","0","71","1992","94","30938"
"Miner","46097","46","097",44.0215411,-97.608122,"590","1172","1134","2220","22","3","0","0","8","53","2261","45","44938"
"Marshall","46091","46","091",45.7370443,-97.5808695,"1008","2443","2258","4032","29","432","2","0","99","107","4474","227","51788"
"Meade","46093","46","093",44.6052764,-102.7141774,"2433","13823","12558","23827","486","562","262","22","330","892","25335","1046","52473"
"San Diego","06073","06","073",33.0236041,-116.7761174,"226057","1618945","1604151","2283618","163276","21237","369052","14298","216183","155432","2162101","1060995","64309"
"San Joaquin","06077","06","077",37.9349815,-121.272244,"51128","352400","356154","403891","50263","4652","104763","3867","82845","58273","424386","284168","53274"
"Ulster","36111","36","111",41.9472156,-74.2654583,"15779","90169","91131","157076","10631","270","3408","89","3084","6742","164008","17292","58918"
"Wayne","36117","36","117",43.4587577,-77.0631637,"9512","45726","46690","86083","3164","221","586","77","776","1509","88692","3724","50798"
"Westchester","36119","36","119",41.1527698,-73.745912,"74290","466996","500319","644076","139500","3691","55039","201","95577","29231","741949","225366","83958"
"Hancock","18059","18","059",39.8225298,-85.7731618,"4713","34905","36423","68008","1417","238","384","13","95","1173","69922","1406","66606"
"San Francisco","06075","06","075",37.7272391,-123.0322294,"58086","427909","412854","409681","46825","2854","284426","3649","54388","38940","712144","128619","81294"
"Nantucket","25019","25","019",41.3058778,-70.1419099,"1119","5589","4967","9047","995","5","120","0","202","187","9482","1074","84057"
"Scotland","37165","37","165",34.8400226,-79.4773366,"3681","17774","18158","16548","13817","3751","276","9","426","1105","34972","960","30958"
"Stanly","37167","37","167",35.3104492,-80.2543742,"6314","30324","30262","51433","6300","230","1164","15","299","1145","58250","2336","40910"
"St. Croix","55109","55","109",45.0289589,-92.4472842,"12254","42922","43196","82800","633","529","886","0","118","1152","84245","1873","70886"
"Rusk","55107","55","107",45.472734,-91.1367448,"5129","7216","7141","13906","141","73","54","0","52","131","14140","217","39194"
"Rock","55105","55","105",42.6698802,-89.0752844,"17674","78915","81812","144840","5612","367","1850","0","1906","6152","147729","12998","50324"
"Rutherford","37161","37","161",35.4027469,-81.9195825,"4807","32462","34403","57070","6809","204","398","0","1402","982","64273","2592","35630"
"Sampson","37163","37","163",34.9905745,-78.3713822,"6143","31398","32475","39112","16423","1001","252","11","5440","1634","52437","11436","35490"
"Richland","55103","55","103",43.3761994,-90.4356927,"5586","8946","8800","17115","129","53","68","8","168","205","17356","390","44810"
"Red River","22081","22","081",32.1012125,-93.3490504,"1001","4305","4533","5187","3446","16","7","6","37","139","8708","130","38000"
"Racine","55101","55","101",42.7540747,-87.414676,"17120","96458","98437","157544","21574","1060","2316","54","6558","5789","170995","23900","55584"
"Houston","01069","01","069",31.1581928,-85.2963976,"27690","49563","53971","72170","27359","383","792","35","853","1942","100196","3338","41571"
"Colleton","45029","45","029",32.8350184,-80.6552438,"2857","18196","19808","21950","14588","295","14","386","414","357","36879","1125","32804"
"Clarendon","45027","45","027",33.6646821,-80.2178886,"3625","16759","17419","16556","16730","46","52","0","345","449","33202","976","33162"
"Clarke","13059","13","059",33.9521852,-83.3671522,"8881","57448","63457","78234","32110","227","5323","45","2470","2496","108135","12770","32162"
"Cherokee","13057","13","057",34.2443166,-84.4750574,"10870","111170","114774","195450","14910","526","3803","15","6724","4516","203512","22432","68926"
"Chattooga","13055","13","055",34.4741785,-85.3452894,"2680","13007","12234","21786","2708","31","129","12","226","349","24071","1170","32913"
"Chattahoochee","13053","13","053",32.3474454,-84.7880206,"1465","7940","3974","8331","1882","158","375","51","340","777","10133","1781","43378"
"Chatham","13051","13","051",31.9804124,-81.0852063,"20320","134833","144457","149918","110146","674","7242","266","3995","7049","262675","16615","47218"
"Barnstable","25001","25","001",41.7988188,-70.2110827,"16688","102244","112522","199244","5570","1036","3012","4","2199","3701","209215","5551","63251"
"Berkshire","25003","25","003",42.3753141,-73.2139479,"14687","62393","66895","118716","3618","339","1962","22","1580","3051","124208","5080","49956"
"Dukes","25007","25","007",41.3809686,-70.7015043,"1260","8443","8605","15788","566","129","134","0","170","261","16915","133","64222"
"Essex","25009","25","009",42.642711,-70.8651073,"57622","367791","396058","609528","29887","1576","26389","224","77776","18469","625001","138848","69068"
"Mahoning","39099","39","099",41.0108798,-80.7703956,"22029","114040","120510","188218","36361","643","1862","39","1806","5621","222418","12132","41375"
"Madison","39097","39","097",39.8966074,-83.4008847,"4818","23851","19605","39320","2540","172","352","8","118","946","42755","701","57406"
"Lucas","39095","39","095",41.6823213,-83.4689033,"36514","211587","224674","318341","82182","1297","7412","141","8888","18000","407703","28558","41777"
"Carson City","32510","32","510",39.15306,-119.7473792,"4406","27959","26523","45131","526","1335","1628","323","3950","1589","42140","12342","47668"
"Greene","01063","01","063",32.8444965,-87.9642005,"811","4095","4602","1547","7015","7","14","0","0","114","8636","61","20541"
"Alachua","12001","12","001",29.6757403,-82.357221,"17388","122968","131250","177612","50580","773","14380","510","2407","7956","231670","22548","43073"
"Bradford","12007","12","007",29.9523863,-82.166599,"2205","15150","12073","21123","5457","23","110","7","38","465","26193","1030","41606"
"Hale","01065","01","065",32.7527958,-87.6230608,"1726","7183","8073","6097","8886","43","42","9","127","52","15086","170","32714"
"Ottawa","40115","40","115",36.8357635,-94.8026814,"10115","15750","16335","22163","307","4449","234","217","446","4269","30446","1639","36347"
"Hunt","48231","48","231",33.1232921,-96.0842024,"7797","43515","44537","69296","7438","571","1038","0","7815","1894","75166","12886","45197"
"Jackson","48239","48","239",28.9598019,-96.58908,"1361","7060","7426","12760","1049","16","30","7","323","301","10018","4468","54926"
"Lincoln","54043","54","043",38.1717696,-82.0776231,"1446","10701","10859","21199","103","38","58","0","0","162","21536","24","35800"
"Logan","54045","54","045",37.8305905,-81.940853,"2947","17612","18148","34489","784","89","130","0","59","209","35444","316","36763"
"Bay","12005","12","005",30.2381172,-85.6314303,"12035","86800","88553","143910","18881","994","3566","102","1081","6819","165724","9629","47368"
"Brevard","12009","12","009",28.2983043,-80.7003309,"33720","270544","283047","459762","56914","1775","12776","493","6852","15019","503412","50179","48925"
"Walla Walla","53071","53","071",46.2546061,-118.4803741,"5230","30558","29168","51507","985","535","966","76","3366","2291","47198","12528","47946"
"Gray","20069","20","069",37.7445134,-100.4517163,"1457","2985","3080","5965","0","0","8","0","65","27","5174","891","61000"
"McDowell","54047","54","047",37.3826627,-81.6582048,"2552","10471","10331","18588","1905","24","0","0","119","166","20561","241","24921"
"Marion","54049","54","049",39.5058387,-80.2434018,"5785","27830","28960","53357","2057","70","293","12","0","1001","56123","667","43165"
"Boulder","08013","08","013",40.0949699,-105.3976911,"24614","155795","154237","274075","2803","1695","13374","214","8812","9059","267545","42487","70961"
"Gordon","13129","13","129",34.5096669,-84.8738622,"3586","27738","28151","50443","2529","181","605","18","1413","700","47602","8287","41612"
"Gilmer","13123","13","123",34.6904951,-84.4546507,"2097","14560","14113","26481","343","56","129","0","1319","345","25607","3066","40228"
"Bent","08011","08","011",37.9318907,-103.0775841,"1043","4046","1849","4942","545","172","44","0","91","101","4051","1844","36791"
"Alcona","26001","26","001",44.6825347,-82.8340798,"3231","5310","5240","10290","29","30","38","4","13","146","10407","143","38033"
"Cheyenne","08017","08","017",38.8353865,-102.6045852,"577","1051","951","1928","6","11","31","0","6","20","1744","258","52554"
"Broomfield","08014","08","014",39.9533016,-105.0520384,"5087","30075","30624","52654","608","226","3644","0","1297","2270","53474","7225","81898"
"Fulton","13121","13","121",33.7900338,-84.4681816,"57209","478161","505742","449141","433529","3032","62081","378","14634","21108","908901","75002","57207"
"Glynn","13127","13","127",31.2127465,-81.4965167,"4828","38647","43096","54590","20977","272","970","96","2458","2380","76348","5395","45918"
"Glascock","13125","13","125",33.2274908,-82.6069126,"535","1495","1592","2728","214","0","0","0","9","136","3039","48","40759"
"Morgan","29141","29","141",38.4208069,-92.8748352,"2115","10179","10046","19475","251","5","10","0","47","437","19832","393","33525"
"Chaffee","08015","08","015",38.7382237,-106.3166853,"1729","9798","8511","17184","367","205","51","0","151","351","16451","1858","51092"
"Clear Creek","08019","08","019",39.6894025,-105.6707833,"939","4724","4412","8589","120","59","58","37","101","172","8629","507","67710"
"New Madrid","29143","29","143",36.5942608,-89.6559485,"2487","8828","9583","14998","2975","18","17","0","48","355","18124","287","33630"
"Bossier","22015","22","015",32.6958514,-93.6161317,"7442","60921","62482","89130","26316","855","1820","140","2273","2869","115563","7840","52892"
"Newton","29145","29","145",36.9083639,-94.3350211,"6332","29111","29666","53461","574","1561","849","46","303","1983","55913","2864","43290"
"Calcasieu","22019","22","019",30.2295588,-93.3580154,"12983","95567","100320","138693","48781","687","2576","7","1009","4134","190151","5736","45312"
"Stone","28131","28","131",30.790184,-89.112297,"939","9140","8838","14147","3450","308","27","0","4","42","17677","301","45025"
"Granville","37077","37","077",36.299884,-78.6576338,"4315","29595","28514","35926","18062","361","278","5","1826","1651","53791","4318","50225"
"Gates","37073","37","073",36.4421353,-76.7023552,"1107","5791","5933","7523","3940","37","19","0","43","162","11506","218","49258"
"Nodaway","29147","29","147",40.3611359,-94.8831457,"4131","11550","11636","21821","663","74","366","30","11","221","22844","342","35854"
"Oregon","29149","29","149",36.6853104,-91.4018272,"1393","5389","5590","10470","26","140","12","0","59","272","10819","160","29851"
"Harrison","48203","48","203",32.5479914,-94.3744344,"4431","32594","33823","48436","14389","235","349","0","1842","1166","58367","8050","45974"
"Monroe","17133","17","133",38.2779831,-90.1790777,"2741","16452","17087","32773","114","13","346","0","11","282","33024","515","70859"
"Guthrie","19077","19","077",41.6835728,-94.5012723,"2526","5318","5422","10495","81","12","16","25","49","62","10512","228","51013"
"Genesee","26049","26","049",43.0210768,-83.7063718,"36319","200473","215401","310956","84922","1819","3982","58","1965","12172","402566","13308","42327"
"Emmet","26047","26","047",45.5900944,-84.9868217,"6404","16303","16715","30533","247","753","188","27","73","1197","32512","506","51018"
"Delta","26041","26","041",45.8052288,-86.9019375,"5770","18172","18540","34569","93","728","95","13","48","1166","36329","383","42031"
"Dickinson","26043","26","043",46.0128231,-87.8661191,"3238","12886","13126","25128","127","122","161","0","22","452","25676","336","43779"
"Grundy","19075","19","075",42.4033232,-92.7902613,"2802","6095","6312","12196","51","16","47","0","13","84","12257","150","56750"
"Fremont","19071","19","071",40.7425902,-95.5991816,"1863","3523","3583","6880","21","45","0","0","60","100","6926","180","53324"
"Hamilton","19079","19","079",42.3907681,-93.709198,"2524","7467","7830","14326","102","0","342","0","357","170","14474","823","49813"
"Loving","48301","48","301",31.8449361,-103.5612293,"30","74","43","64","0","20","0","0","20","13","76","41",NA
"Franklin","12037","12","037",29.8101756,-84.7991742,"1362","6800","4828","9534","1692","59","88","68","53","134","11051","577","40401"
"Oliver","38065","38","065",47.1180789,-101.3314198,"451","944","875","1683","6","78","3","0","22","27","1766","53","60278"
"Mountrail","38061","38","061",48.2102906,-102.3647561,"1576","5086","4167","6117","11","2626","62","0","53","384","8719","534","68188"
"Nelson","38063","38","063",47.9186666,-98.2044278,"1040","1572","1476","2935","42","40","0","0","0","31","2989","59","51085"
"McCulloch","48307","48","307",31.2054766,-99.3598557,"830","4086","4187","7354","136","273","0","0","191","319","5723","2550","40561"
"McLennan","48309","48","309",31.549493,-97.2014721,"19175","117708","123797","187279","34776","767","3768","28","9267","5620","181559","59946","42687"
"Cedar","29039","29","039",37.7336549,-93.8500144,"1224","6918","6974","13399","12","7","11","30","5","428","13700","192","31532"
"Woodward","40153","40","153",36.4256189,-99.2736609,"2106","11172","9814","19225","132","401","25","3","220","980","18574","2412","55300"
"Tate","28137","28","137",34.6495527,-89.9431054,"1891","13835","14580","19059","8747","0","103","0","132","374","27714","701","42880"
"Woods","40151","40","151",36.7269843,-98.863649,"1308","4911","4122","8106","290","124","64","5","64","380","8504","529","55315"
"Douglas","41019","41","019",43.2863277,-123.154476,"8443","52932","54262","99499","340","1569","880","95","746","4065","101641","5553","41312"
"Carter","29035","29","035",36.9448579,-90.9457051,"689","2995","3289","6023","4","72","0","0","16","169","6164","120","33034"
"Cass","29037","29","037",38.6471588,-94.3542424,"9232","49384","51397","92918","3663","499","732","37","626","2306","96543","4238","61584"
"Cape Girardeau","29031","29","031",37.3841408,-89.6856575,"6805","37569","40037","68536","5934","237","1019","8","353","1519","75883","1723","46050"
"Carroll","29033","29","033",39.4273754,-93.5002266,"1997","4410","4686","8693","111","2","8","0","54","228","8976","120","42415"
"Curry","41015","41","015",42.4664387,-124.2109292,"1507","10878","11460","20458","73","456","123","5","454","769","20934","1404","40884"
"Deschutes","41017","41","017",43.9151181,-121.2255751,"8874","82129","84493","155421","756","920","2021","200","2820","4484","153791","12831","51223"
"Norman","27107","27","107",47.3294703,-96.4638068,"2880","3353","3339","6238","34","143","27","12","63","175","6383","309","50377"
"Nobles","27105","27","105",43.6776863,-95.7631323,"5516","11190","10497","17563","864","49","1249","7","1562","393","16193","5494","50625"
"Bandera","48019","48","019",29.756389,-99.2482849,"1418","10387","10409","19441","294","120","45","0","113","783","17152","3644","49863"
"Bullitt","21029","21","029",37.969928,-85.7026414,"6517","38049","38912","74289","369","126","403","98","358","1318","75706","1255","55975"
"Williamsburg","51830","51","830",37.269481,-76.7081925,"1691","6665","8089","11049","2254","13","869","0","68","501","13716","1038","48639"
"Nicollet","27103","27","103",44.3588195,-94.245685,"5899","16492","16594","30971","806","67","489","0","317","436","31743","1343","58640"
"Murray","27101","27","101",44.0155937,-95.7615809,"3772","4227","4302","8250","30","28","37","36","53","95","8253","276","51983"
"Olmsted","27109","27","109",44.0034295,-92.4067216,"17690","72773","75963","127301","7595","319","8722","16","1185","3598","141916","6820","68023"
"Humboldt","32013","32","013",41.4079136,-118.1275915,"1305","8971","8096","14859","77","828","54","8","746","495","12714","4353","65212"
"Tallahatchie","28135","28","135",33.9545268,-90.1722451,"1716","8907","6052","6299","6751","66","222","19","1546","56","12467","2492","29731"
"Aleutians West","02016","02","016",51.9594469,178.338813,"2044","3393","2291","1794","269","738","2112","141","301","329","5061","623","84306"
"Eureka","32011","32","011",39.9777878,-116.2722082,"159","797","872","1599","2","25","0","11","24","8","1625","44","60250"
"Kosciusko","18085","18","085",41.2442928,-85.8615754,"8123","38870","39113","72453","650","230","825","0","2546","1279","71923","6060","52821"
"Lincoln","32017","32","017",37.634605,-114.8630367,"397","2854","2340","4708","152","201","4","0","47","82","4823","371","44866"
"Johnson","18081","18","081",39.4959859,-86.0946003,"9461","71670","73975","135173","3154","97","2932","11","1803","2475","140750","4895","62147"
"Lander","32015","32","015",39.9002105,-117.0472398,"441","3231","2715","5259","8","316","48","13","141","161","4333","1613","78190"
"Knox","18083","18","083",38.688391,-87.4203544,"4021","19264","18798","35950","1132","32","220","74","196","458","37392","670","42725"
"Lackawanna","42069","42","069",41.4402841,-75.6096661,"22930","103058","110401","197873","6588","264","4519","13","1435","2767","200795","12664","46271"
"Lake","18089","18","089",41.472247,-87.3743368,"36755","237712","253884","303471","122177","1568","6661","184","44092","13443","404511","87085","50135"
"Jefferson","42065","42","065",41.1380282,-79.012419,"10606","22240","22516","43872","236","97","114","32","48","357","44415","341","42903"
"Cottonwood","27033","27","033",44.0107107,-95.1831303,"3407","5685","5947","10568","72","60","318","4","432","178","10814","818","46750"
"Cook","27031","27","031",47.5385711,-90.2901903,"1302","2602","2592","4518","47","386","48","15","65","115","5105","89","52299"
"Indiana","42063","42","063",40.6514319,-79.0875451,"13765","44252","43643","83054","2205","166","983","27","277","1183","86745","1150","45195"
"Garza","48169","48","169",33.183792,-101.3011341,"777","4247","2163","5445","318","48","4","10","393","192","2820","3590","48508"
"Dakota","27037","27","037",44.670893,-93.0624813,"39109","200534","207922","343642","21308","1248","18647","51","10863","12697","382132","26324","75567"
"Crow Wing","27035","27","035",46.4916528,-94.0707182,"12358","31459","31589","60860","403","715","317","0","42","711","62228","820","49435"
"Dodge","27039","27","039",44.0207056,-92.869353,"5128","10144","10146","19733","109","31","96","0","73","248","19307","983","68116"
"Newton","48351","48","351",30.7867182,-93.73925,"993","7347","6884","10952","2975","51","84","0","28","141","13750","481","38144"
"Forsyth","13117","13","117",34.225143,-84.1274353,"14678","97505","98731","166612","5702","474","16249","33","3345","3821","177443","18793","88816"
"Freestone","48161","48","161",31.7012602,-96.1444867,"2037","10230","9356","15629","3174","182","54","0","259","288","16757","2829","44301"
"Galveston","48167","48","167",29.2283656,-94.8954263,"20021","152405","155758","240126","41017","1107","10200","73","7458","8182","235831","72332","62313"
"Gaines","48165","48","165",32.7439423,-102.6315614,"1232","9556","9360","17295","349","80","95","59","819","219","11504","7412","57635"
"Floyd","13115","13","115",34.2636769,-85.2137297,"6747","46567","49602","74398","14119","334","1234","19","4555","1510","86438","9731","41549"
"Fayette","13113","13","113",33.4127172,-84.4939407,"7622","52720","55935","77121","22632","369","4356","87","1334","2756","101092","7563","79066"
"Otero","08089","08","089",37.8841698,-103.7212597,"2279","9121","9451","16836","62","309","175","187","660","343","10925","7647","32311"
"Nevada","05099","05","099",33.6666991,-93.3050716,"946","4367","4426","5908","2705","29","113","0","0","38","8511","282","30691"
"Fannin","13111","13","111",34.8665427,-84.3173308,"1774","11531","12211","22993","64","139","121","7","5","413","23277","465","37049"
"Miller","05091","05","091",33.3055054,-93.9015018,"3364","21540","22112","31173","10877","211","50","0","338","1003","42355","1297","40317"
"Schley","13249","13","249",32.263441,-84.3227238,"690","2517","2557","3737","1215","0","8","0","90","24","4848","226","39375"
"Mississippi","05093","05","093",35.7669426,-90.0522086,"4427","21815","23049","27694","15543","49","133","9","733","703","43144","1720","34612"
"Rockdale","13247","13","247",33.6520811,-84.0263696,"5164","41147","45754","38452","42833","104","1708","187","1923","1694","78284","8617","50455"
"Monroe","05095","05","095",34.6795117,-91.2033099,"1060","3642","4071","4313","3138","12","42","0","90","118","7550","163","27647"
"Georgetown","45043","45","043",33.4175309,-79.2963325,"4119","28819","31753","38776","19789","106","248","17","1064","572","58697","1875","42835"
"Montgomery","05097","05","097",34.5455805,-93.6633299,"1241","4547","4650","8684","68","119","61","0","42","223","8858","339","33037"
"Warren","51187","51","187",38.9082214,-78.207594,"2841","19278","19203","34931","1542","73","401","4","201","1329","36972","1509","61454"
"Worcester","24047","24","047",38.2221332,-75.3099315,"4088","25018","26501","42530","7290","78","773","67","112","669","49829","1690","56773"
"Wicomico","24045","24","045",38.3671156,-75.6319639,"7530","48199","52983","69506","24429","124","3084","18","1032","2989","96189","4993","52278"
"Washington","24043","24","043",39.6036207,-77.8146709,"12834","76058","73212","124955","15335","352","2492","59","975","5102","143250","6020","56228"
"Talbot","24041","24","041",38.7483519,-76.1784798,"3742","17811","19988","31083","4493","42","560","23","266","1332","35543","2256","58228"
"Jones","37103","37","103",35.0322677,-77.3561946,"1265","4966","5200","6618","3224","11","10","0","106","197","9742","424","34005"
"Bayfield","55007","55","007",46.6341992,-91.1772815,"5763","7719","7331","13000","100","1503","67","0","38","342","14829","221","46665"
"Barron","55005","55","005",45.4371917,-91.8528921,"10730","23012","22674","43704","579","353","217","0","324","509","44637","1049","45714"
"Lorain","39093","39","093",41.4388045,-82.179722,"26266","149303","153849","258620","25362","817","2911","131","4326","10985","275741","27411","52457"
"Delta","08029","08","029",38.8617559,-107.864757,"2912","15148","15066","28672","290","185","208","0","461","398","25766","4448","42452"
"Lawrence","21127","21","127",38.0744569,-82.7383015,"1627","7836","7985","15529","24","6","90","0","6","166","15715","106","35935"
"Santa Fe","35049","35","049",35.5143241,-105.9657706,"16214","71649","75459","122459","1149","4677","1785","83","13115","3840","71977","75131","54315"
"Roosevelt","35041","35","041",34.0214569,-103.4827248,"1865","10076","9832","14644","497","250","112","7","3788","610","11926","7982","35546"
"Sandoval","35043","35","043",35.6850708,-106.8826194,"13695","67141","69497","95608","3638","16807","1891","50","13301","5343","86281","50357","58982"
"San Juan","35045","35","045",36.5116245,-108.3245778,"13301","62024","63109","66443","691","46829","644","68","6450","4008","100629","24504","48671"
"San Miguel","35047","35","047",35.4768585,-104.8035189,"1791","14230","14438","16157","521","354","266","24","10558","788","6608","22060","29237"
"Kenedy","48261","48","261",26.8902129,-97.5911434,"91","295","270","554","0","0","1","0","10","0","191","374","36438"
"Ashland","55003","55","003",46.5444245,-90.6796907,"4169","7996","7997","13588","84","1621","83","1","28","588","15625","368","39381"
"Adams","55001","55","001",43.9737629,-89.7672232,"4636","11033","9418","19058","624","102","80","41","147","399","19667","784","43640"
"Brown","55009","55","009",44.4739612,-87.9959258,"22932","126333","128384","220204","6011","5756","7709","27","7335","7675","234585","20132","53527"
"Danville","51590","51","590",36.5833337,-79.4080707,"3939","19411","23039","19612","20656","48","518","0","723","893","41049","1401","32315"
"Emporia","51595","51","595",36.696182,-77.5359753,"475","2605","3067","2222","3128","14","59","0","171","78","5501","171","28601"
"Sumner","20191","20","191",37.2366617,-97.4933519,"3638","11694","11944","22309","211","316","53","17","171","561","22408","1230","50141"
"Trego","20195","20","195",38.9213022,-99.865423,"471","1435","1516","2822","9","33","12","0","21","54","2887","64","54000"
"Kent","48263","48","263",33.1847797,-100.7697199,"269","423","398","759","3","9","0","0","47","3","674","147","47024"
"Accomack","51001","51","001",37.7659435,-75.7578073,"3478","16117","16998","22521","9496","134","48","0","438","478","30206","2909","39412"
"Warren","18171","18","171",40.3526584,-87.3758466,"1335","4159","4208","8207","47","13","8","0","20","72","8261","106","56042"
"Wayne","18177","18","177",39.8630908,-85.0067351,"7718","32924","34942","61099","3261","67","532","0","919","1988","66043","1823","38494"
"Wabaunsee","20197","20","197",38.9551537,-96.2012619,"1698","3559","3438","6745","16","22","17","0","12","185","6772","225","54688"
"Wallace","20199","20","199",38.9266259,-101.7711031,"472","789","806","1587","0","6","1","0","0","1","1547","48","47279"
"Hudson","34017","34","017",40.7313751,-74.0786014,"46826","329204","333415","368591","84471","2219","96941","483","89853","20061","379115","283504","59741"
"Harris","48201","48","201",29.857273,-95.3930371,"239138","2166727","2189635","2749811","821686","19522","286331","3060","380495","95457","2545642","1810720","54457"
"Dallam","48111","48","111",36.2863696,-102.5940204,"762","3752","3262","6241","88","120","68","0","305","192","4044","2970","41345"
"Deaf Smith","48117","48","117",34.9407663,-102.6075637,"1583","9491","9754","16911","193","169","59","0","1246","667","5805","13440","43373"
"Dawson","48115","48","115",32.7419338,-101.9473224,"1453","7670","5872","10498","784","288","109","4","1575","284","6134","7408","41095"
"Essex","36031","36","031",44.1096005,-73.7784307,"5428","20283","18629","36206","1194","97","218","6","575","616","37756","1156","52758"
"Mendocino","06045","06","045",39.4323876,-123.4428811,"6931","43827","43717","72512","585","4018","1697","196","4764","3772","66851","20693","42980"
"Sabine","22085","22","085",31.5604024,-93.5595793,"3715","12059","12189","17087","4061","1976","99","14","110","901","23343","905","38828"
"St. Bernard","22087","22","087",29.9181102,-89.2634941,"4216","21298","21560","30949","9237","154","972","0","469","1077","38725","4133","42753"
"Mariposa","06043","06","043",37.5700335,-119.9128599,"1447","8931","8858","15577","192","572","231","25","469","723","15986","1803","47681"
"Gloucester","34015","34","015",39.7228248,-75.1455481,"24714","141053","149245","238011","29365","401","8697","87","6478","7259","274561","15737","76727"
"Richland","22083","22","083",32.413158,-91.7483534,"2088","10062","10715","12978","7506","10","36","4","98","145","20355","422","36421"
"St. Charles","22089","22","089",29.9057222,-90.3578553,"3814","25699","26940","37152","13867","104","582","15","357","562","49668","2971","59990"
"Cumberland","34011","34","011",39.3283874,-75.1216435,"14658","80938","76097","99014","32152","1218","2115","0","16140","6396","112053","44982","49984"
"Beauregard","22011","22","011",30.6450184,-93.3402526,"4578","18513","17746","29780","4777","369","222","3","201","907","34996","1263","45969"
"Muskogee","40101","40","101",35.6175506,-95.3839106,"9171","34335","35889","42622","7784","11426","488","9","1208","6687","66219","4005","39984"
"St. Johns","12109","12","109",29.8906441,-81.3839483,"11891","102338","108157","188004","11366","452","4772","198","1071","4632","198060","12435","66194"
"Hampton","45049","45","049",32.7783349,-81.1438173,"2037","10561","9912","8705","11023","40","23","24","470","188","19683","790","31410"
"Pinellas","12103","12","103",27.903122,-82.739518,"67333","446740","484737","769793","96133","2610","29531","706","9304","23400","850405","81072","45819"
"Waukesha","55133","55","133",43.0193081,-88.3067069,"37557","193441","200432","365833","5605","730","11662","119","3866","6058","376213","17660","76545"
"Cotton","40033","40","033",34.290676,-98.3734379,"1001","3042","3070","4888","120","522","42","0","108","432","5684","428","46361"
"Washington","55131","55","131",43.391156,-88.2329166,"12043","65880","67041","127321","1377","177","1321","6","546","2173","129068","3853","69237"
"Waushara","55137","55","137",44.1128248,-89.239752,"6831","12783","11538","22966","447","136","89","0","340","343","22807","1514","45166"
"Waupaca","55135","55","135",44.4780043,-88.9670053,"10998","26378","25747","50515","230","313","233","7","327","500","50648","1477","51994"
"Manassas Park","51685","51","685",38.7689451,-77.448767,"840","8219","7406","10223","1935","51","1486","0","946","984","10127","5498","73528"
"Lynchburg","51680","51","680",37.3990161,-79.1954582,"6844","36717","41441","50858","22231","190","2223","24","586","2046","75603","2555","39589"
"Pasco","12101","12","101",28.3074646,-82.4645839,"35546","232719","246569","425022","24301","1727","11068","320","5198","11652","416494","62794","45064"
"Putnam","12107","12","107",29.6060059,-81.7408939,"4888","35825","36871","56529","11969","157","440","83","2083","1435","65835","6861","31715"
"Wayne","37191","37","191",35.3541896,-78.0086695,"8460","61106","63249","71217","38958","272","1438","0","8714","3756","110993","13362","40390"
"Wilkes","37193","37","193",36.2088833,-81.1660949,"4650","33990","34956","62888","3083","155","219","35","1587","979","64969","3977","33232"
"Wilson","37195","37","195",35.7003569,-77.9215978,"6410","38776","42805","41499","31318","429","757","64","5647","1867","73478","8103","39847"
"Yadkin","37197","37","197",36.1587653,-80.6651641,"3199","18706","19265","34703","1284","118","21","0","1196","649","33992","3979","37796"
"Clayton","13063","13","063",33.5426863,-84.3555727,"14630","127166","140068","58563","178548","581","13858","25","10117","5542","232123","35111","40938"
"Manassas","51683","51","683",38.747172,-77.4845362,"2588","20314","20429","29104","5809","138","2136","48","1809","1699","27340","13403","72890"
"Alcorn","28003","28","003",34.8865689,-88.5811091,"2728","18250","19069","31563","4281","79","101","0","466","829","36181","1138","36163"
"Columbus","37047","37","047",34.2616017,-78.6393077,"5251","28199","29031","35328","17424","2005","186","12","1514","761","54496","2734","34949"
"Craven","37049","37","049",35.1181789,-77.0825413,"7367","52755","51695","73667","22724","600","2576","110","2131","2642","97207","7243","47985"
"Plymouth","19149","19","149",42.7375854,-96.2158638,"3775","12269","12584","24060","126","26","85","75","237","244","23930","923","57130"
"Cobb","13067","13","067",33.93994,-84.5741657,"41765","348219","370914","442490","190681","1421","35261","351","32310","16619","628597","90536","65873"
"Coffee","13069","13","069",31.5492446,-82.8449381,"3145","21980","21023","28479","12147","73","277","0","1763","264","38331","4672","33965"
"Custer","40039","40","039",35.6456012,-98.9973857,"2589","14515","14463","23976","906","827","410","19","606","2234","24297","4681","46125"
"Comanche","40031","40","031",34.6626279,-98.4765971,"11639","65098","60433","80915","21187","6628","2688","664","2640","10809","109981","15550","46241"
"Perry","18123","18","123",38.0814361,-86.6265397,"2295","10407","9007","18411","592","15","51","0","50","295","19173","241","47470"
"Smith","28129","28","129",32.0190291,-89.4948768,"1554","7830","8427","12172","4026","0","11","0","2","46","16210","47","32951"
"Franklin","13119","13","119",34.3750807,-83.2280639,"2109","10827","11283","18895","2124","8","162","0","658","263","21176","934","33816"
"Craig","40035","40","035",36.7638896,-95.2015531,"3074","7545","7199","9728","476","2766","91","8","143","1532","14284","460","38876"
"Creek","40037","40","037",35.9077324,-96.3797931,"10180","35084","35677","56386","1643","7367","355","16","642","4352","68169","2592","45016"
"Rush","20165","20","165",38.5235917,-99.3091827,"1003","1593","1591","3125","0","14","0","0","2","43","3090","94","38854"
"Russell","20167","20","167",38.9160397,-98.7709489,"1041","3516","3472","6669","87","34","0","55","1","142","6817","171","41102"
"Hays","48209","48","209",30.0612247,-98.0292673,"10780","88420","89142","150565","6265","704","2508","226","12395","4899","112412","65150","58583"
"Haskell","48207","48","207",33.175965,-99.7307731,"998","3342","2511","5166","191","20","57","0","254","165","4379","1474","39850"
"Scott","21209","21","209",38.2898822,-84.5793761,"4467","24733","25445","44455","2602","86","441","0","1340","1254","48042","2136","63027"
"Hartley","48205","48","205",35.8402444,-102.6100473,"838","3771","2350","5121","516","3","8","0","281","192","4557","1564","63004"
"Russell","21207","21","207",36.9906049,-85.0548741,"1749","8644","9025","17057","49","25","20","167","191","160","17044","625","30720"
"Rowan","21205","21","205",38.2042499,-83.4280697,"1704","11316","12292","22406","402","67","110","0","240","383","23335","273","36860"
"Jackson","54035","54","035",38.8342339,-81.6777168,"1775","14506","14750","28496","194","32","59","0","18","457","29243","13","41314"
